{
  "contact": [],
  "fridges": [
    {
      "id": "allfieldsfridge",
      "name": "All Fields Fridge",
      "tags": ["harlem", "halal", "kashrut"],
      "location": {
        "name": "The Bakery Store",
        "street": "17 Nassau Ave",
        "city": "Brooklyn",
        "state": "NY",
        "zip": "11222",
        "geoLat": 40.72283,
        "geoLng": -73.95412
      },
      "maintainer": {
        "name": "Emily Ward",
        "email": "eward@example.net",
        "organization": "Food For People",
        "phone": "(782) 654-4748",
        "website": "http://gray.com/",
        "instagram": "https://www.instagram.com/theneighborhoodfridge"
      },
      "notes": "Next to Lot Radio. Go up the stairs and to the right.",
      "photoUrl": "http://127.0.0.1:3000/fridge.webp",
      "verified": false
    },
    {
      "id": "requiredfieldsfridge",
      "name": "Required Fields Fridge",
      "location": {
        "street": "326 6th St",
        "city": "Brooklyn",
        "state": "NY",
        "zip": "11215",
        "geoLat": 40.67108,
        "geoLng": -73.9852
      }
    },
    {
      "id": "happyfridge",
      "name": "Happy Fridge",
      "tags": ["harlem", "halal", "kashrut"],
      "location": {
        "street": "17 Nassau Ave",
        "city": "Brooklyn",
        "state": "NY",
        "zip": "11222"
      },
      "maintainer": {
        "name": "Emily Ward",
        "email": "eward@example.net",
        "organization": "Food For People",
        "phone": "(782) 654-4748",
        "instagram": "https://www.instagram.com/theneighborhoodfridge"
      },
      "notes": "Next to Lot Radio.",
      "photoUrl": "http://127.0.0.1:3000/fridge.webp",
      "verified": true
    },
    {
      "id": "smartfridge",
      "name": "Smart Fridge",
      "tags": ["harlem", "halal", "kashrut"],
      "location": {
        "street": "17 Nassau Ave",
        "city": "Brooklyn",
        "state": "NY",
        "zip": "11222"
      },
      "maintainer": {
        "website": "http://gray.com/"
      },
      "notes": "Next to Lot Radio.",
      "verified": false
    }
  ],
  "image": [
    {
      "id": 1
    }
  ],
  "reports": [
    {
      "id": "2022-03-29T18:10:38.547Z",
      "fridgeId": "allfieldsfridge",
      "timestamp": "2022-03-29T18:10:38.547Z",
      "condition": "good",
      "foodPercentage": 100,
      "photoUrl": "http://127.0.0.1:3000/food.webp",
      "notes": "Filled with Mars bars and M&M candy."
    },
    {
      "id": "2022-03-29T18:10:38.547Z",
      "fridgeId": "allfieldsfridge",
      "timestamp": "2022-03-29T18:10:38.547Z",
      "condition": "dirty",
      "foodPercentage": 0,
      "photoUrl": "http://127.0.0.1:3000/food.webp",
      "notes": ""
    },
    {
      "id": "2022-03-29T18:10:38.547Z",
      "fridgeId": "requiredfieldsfridge",
      "timestamp": "2022-03-29T18:10:38.547Z",
      "condition": "out of order",
      "foodPercentage": 100
    },
    {
      "id": "2022-03-29T18:10:38.547Z",
      "fridgeId": "requiredfieldsfridge",
      "timestamp": "2022-03-29T18:10:38.547Z",
      "condition": "not at location",
      "foodPercentage": 0
    }
  ]
}
