{
  "fridges": [
    {
      "id": "lescommunityfridge",
      "name": "LES Community Fridge",
      "verified": false,
      "location": {
        "street": "466 Grand Street",
        "city": "New York",
        "state": "NY",
        "zip": "10002",
        "geoLat": 40.715207,
        "geoLng": -73.983748
      },
      "maintainer": {
        "instagram": "https://www.instagram.com/les_communityfridge",
        "website": "https://linktr.ee/lescommunityfridge"
      },
      "photoUrl": "http://placekitten.com/300/345"
    },
    {
      "id": "barriofridge1",
      "name": "Barrio Fridge #1",
      "verified": false,
      "maintainer": {
        "instagram": "https://www.instagram.com/thebarriofridge",
        "website": "https://thebarriofridge.com/",
        "email": "volunteers@thebarriofridge.com"
      },
      "location": {
        "street": "339 East 108th Street",
        "city": "New York",
        "state": "NY",
        "zip": "10029",
        "geoLat": 40.7911604,
        "geoLng": -73.9393979
      },
      "photoUrl": "http://placekitten.com/300/345"
    },
    {
      "id": "harlemcommunityfridge",
      "name": "Harlem Community Fridge",
      "verified": false,
      "location": {
        "street": "352 West 116th Street",
        "city": "New York",
        "state": "NY",
        "zip": "10026",
        "geoLat": 40.8049571,
        "geoLng": -73.9570766,
        "name": "Ralph & Nash Deli"
      },
      "maintainer": {
        "instagram": "https://www.instagram.com/theharlemcommunityfridge"
      },
      "photoUrl": "http://placekitten.com/300/345"
    },
    {
      "id": "uptownfridge",
      "name": "Uptown Fridge",
      "verified": false,
      "location": {
        "street": "4672 Broadway",
        "city": "New York",
        "state": "NY",
        "zip": "10040",
        "geoLat": 40.863154,
        "geoLng": -73.929629
      },
      "maintainer": {
        "instagram": "https://www.instagram.com/theuptownfridge"
      },
      "photoUrl": "http://placekitten.com/300/345"
    },
    {
      "id": "madisonsquareboysandgirlsclub",
      "name": "Madison Square Boys and Girls Club",
      "verified": false,
      "location": {
        "street": "250 Bradhurst Avenue",
        "city": "New York",
        "state": "NY",
        "zip": "10039",
        "geoLat": 40.8294203,
        "geoLng": -73.9386208
      },
      "maintainer": {
        "instagram": "https://www.instagram.com/the155streetfridge"
      },
      "photoUrl": "http://placekitten.com/300/345"
    },
    {
      "id": "westharlemcommunityfridge",
      "name": "West Harlem Community Fridge",
      "verified": false,
      "location": {
        "street": "521 West 126th Street",
        "city": "New York",
        "state": "NY",
        "zip": "10027",
        "geoLat": 40.8149431,
        "geoLng": -73.9562415,
        "name": "Saint Mary's Church of Manhattanville"
      },
      "maintainer": {
        "instagram": "https://www.instagram.com/FridgeOnW126th"
      },
      "photoUrl": "http://placekitten.com/300/345"
    },
    {
      "id": "communityfridgewest120thstreet",
      "name": "Community Fridge - West 120th Street",
      "verified": false,
      "location": {
        "street": "86 West 120th Street",
        "city": "New York",
        "state": "NY",
        "zip": "10026",
        "geoLat": 40.8043636,
        "geoLng": -73.94754
      },
      "maintainer": {
        "instagram": "https://www.instagram.com/Communityfridge120"
      },
      "photoUrl": "http://placekitten.com/300/345"
    },
    {
      "id": "peoplesfridgewordup",
      "name": "People's Fridge Word Up",
      "verified": false,
      "location": {
        "street": "2113 Amsterdam Avenue",
        "city": "New York",
        "state": "NY",
        "zip": "10032",
        "geoLat": 40.8376548,
        "geoLng": -73.9382991,
        "name": "Word Up Community Bookshop"
      },
      "maintainer": {
        "instagram": "https://www.instagram.com/peoplesfridgewordup",
        "website": "https://linktr.ee/wordupfridge"
      },
      "photoUrl": "http://placekitten.com/300/345"
    },
    {
      "id": "ujamaasolidarityfridge",
      "name": "Ujamaa Solidarity Fridge",
      "verified": false,
      "location": {
        "street": "830 Columbus Avenue",
        "city": "New York",
        "state": "NY",
        "zip": "10025",
        "geoLat": 40.796449550000006,
        "geoLng": -73.96528990317628
      },
      "maintainer": {
        "instagram": "https://www.instagram.com/ujamaafridge"
      },
      "photoUrl": "http://placekitten.com/300/345"
    },
    {
      "id": "sixthstreetcommunitycenterfridge",
      "name": "Sixth Street Community Center Fridge",
      "verified": false,
      "location": {
        "street": "638 East 6th Street",
        "city": "New York",
        "state": "NY",
        "zip": "10009",
        "geoLat": 40.7236719,
        "geoLng": -73.98025568410296
      },
      "maintainer": {
        "instagram": "https://www.instagram.com/sixthstreetcc"
      },
      "photoUrl": "http://placekitten.com/300/345"
    },
    {
      "id": "sugarhillcommunityfridges",
      "name": "Sugar Hill Community Fridges",
      "verified": false,
      "location": {
        "street": "3671 Broadway",
        "city": "New York",
        "state": "NY",
        "zip": "10031",
        "geoLat": 40.830788,
        "geoLng": -73.947599,
        "name": "Good Stuff Juice Company"
      },
      "maintainer": {
        "instagram": "https://www.instagram.com/sugarhillfridge",
        "website": "http://linktr.ee/sugarhillfridge"
      },
      "photoUrl": "http://placekitten.com/300/345"
    },
    {
      "id": "westendcommunityfridge",
      "name": "West End Community Fridge",
      "verified": false,
      "location": {
        "street": "245 West 77th Street",
        "city": "New York",
        "state": "NY",
        "zip": "10024",
        "geoLat": 40.7830061,
        "geoLng": -73.981814
      },
      "maintainer": {
        "instagram": "https://www.instagram.com/westendfridge",
        "website": "http://linktr.ee/westendfridge"
      },
      "photoUrl": "http://placekitten.com/300/345"
    },
    {
      "id": "peoplespeoplesfridge",
      "name": "People's People's Fridge",
      "verified": false,
      "location": {
        "street": "908 Saint Nicholas Avenue",
        "city": "New York",
        "state": "NY",
        "zip": "10032",
        "geoLat": 40.8311013,
        "geoLng": -73.9410869
      },
      "maintainer": {
        "instagram": "https://www.instagram.com/thepeoplespeoplesfridge",
        "website": "https://docs.google.com/forms/d/e/1FAIpQLSf8xu_ohAJuMvc-pQIbEBseSmHpB_xrlGM3Sa0P5kq2f13VqA/viewform"
      },
      "photoUrl": "http://placekitten.com/300/345"
    },
    {
      "id": "smaccommunityfridge",
      "name": "S'MAC Community Fridge",
      "verified": false,
      "location": {
        "street": "197 1st Avenue",
        "city": "New York",
        "state": "NY",
        "zip": "10003",
        "geoLat": 40.730191,
        "geoLng": -73.983639,
        "name": "S'MAC East Village"
      },
      "maintainer": {
        "instagram": "https://www.instagram.com/eastvillageneighbors/",
        "website": "https://linktr.ee/Eastvillageneighbors"
      },
      "photoUrl": "http://placekitten.com/300/345"
    },
    {
      "id": "chelseacommunityfridgecupboard",
      "name": "Chelsea Community Fridge & Cupboard",
      "verified": false,
      "location": {
        "street": "55 West 15th Street",
        "city": "New York",
        "state": "NY",
        "zip": "10011",
        "geoLat": 40.7378597,
        "geoLng": -73.99558230349778
      },
      "maintainer": {
        "instagram": "https://www.instagram.com/Thechelseafridge",
        "website": "http://linktr.ee/thechelseafridge"
      },
      "photoUrl": "http://placekitten.com/300/345"
    },
    {
      "id": "broomeboweryfridge",
      "name": "Broome & Bowery Fridge",
      "verified": false,
      "location": {
        "street": "329 Broome Street",
        "city": "New York",
        "state": "NY",
        "zip": "10002",
        "geoLat": 40.719040449999994,
        "geoLng": -73.99389033403406
      },
      "maintainer": {
        "instagram": "https://www.instagram.com/broomeboweryfridge"
      },
      "photoUrl": "http://placekitten.com/300/345"
    },
    {
      "id": "lanevera183",
      "name": "La Nevera 183",
      "verified": false,
      "location": {
        "street": "500 West 180th Street",
        "city": "New York",
        "state": "NY",
        "zip": "10033",
        "geoLat": 40.8474732,
        "geoLng": -73.931775,
        "name": "Washington Heights CORNER Project"
      },
      "maintainer": {
        "instagram": "https://www.instagram.com/lanevera183"
      },
      "notes": "On the 2nd Floor",
      "photoUrl": "http://placekitten.com/300/345"
    },
    {
      "id": "overthrowcommunityfridge",
      "name": "Overthrow Community Fridge",
      "verified": false,
      "location": {
        "street": "9 Bleecker Street",
        "city": "New York",
        "state": "NY",
        "zip": "10012",
        "geoLat": 40.72553285,
        "geoLng": -73.992831965796,
        "name": "Overthrow Boxing Club"
      },
      "maintainer": {
        "instagram": "https://www.instagram.com/overthrowcommunityfridge"
      },
      "photoUrl": "http://placekitten.com/300/345"
    },
    {
      "name": "Barrio Fridge #2",
      "id": "barriofridge2",
      "verified": false,
      "maintainer": {
        "instagram": "https://www.instagram.com/thebarriofridge",
        "website": "https://thebarriofridge.com/",
        "email": "volunteers@thebarriofridge.com"
      },
      "location": {
        "street": "314 East 106th Street",
        "city": "New York",
        "state": "NY",
        "zip": "10029",
        "geoLat": 40.78999785,
        "geoLng": -73.94161519709277
      },
      "photoUrl": "http://placekitten.com/300/345"
    },
    {
      "id": "fridgeatthefort",
      "name": "Fridge at the Fort",
      "verified": false,
      "location": {
        "street": "770 West 181st Street",
        "city": "New York",
        "state": "NY",
        "zip": "10033",
        "geoLat": 40.8507466,
        "geoLng": -73.9381774,
        "name": "Hudson View Restaurant"
      },
      "maintainer": {
        "instagram": "https://www.instagram.com/fortfridge"
      },
      "photoUrl": "http://placekitten.com/300/345"
    },
    {
      "id": "communityfridgeatsaintjude",
      "name": "Community Fridge at Saint Jude",
      "verified": false,
      "location": {
        "street": "511 West 164th Street",
        "city": "New York",
        "state": "NY",
        "zip": "10032",
        "geoLat": 40.837692950000005,
        "geoLng": -73.93940732299878,
        "name": "Centro Altagracia"
      },
      "maintainer": {
        "instagram": "https://www.instagram.com/altagraciafaith"
      },
      "photoUrl": "http://placekitten.com/300/345"
    },
    {
      "id": "astoriafridge",
      "name": "Astoria Fridge",
      "verified": false,
      "location": {
        "street": "8-01 Astoria Boulevard",
        "city": "New York",
        "state": "NY",
        "zip": "11102",
        "geoLat": 40.77280815,
        "geoLng": -73.93241274910629
      },
      "maintainer": {
        "instagram": "https://www.instagram.com/astoriafridge",
        "website": "http://linktr.ee/Astoriafridge"
      },
      "photoUrl": "http://placekitten.com/300/345"
    },
    {
      "id": "jacksonheightscommunityfridge",
      "name": "Jackson Heights Community Fridge",
      "verified": false,
      "location": {
        "street": "80-02 Northern Boulevard",
        "city": "New York",
        "state": "NY",
        "zip": "11372",
        "geoLat": 40.7552278,
        "geoLng": -73.8870637
      },
      "maintainer": {
        "instagram": "https://www.instagram.com/jacksonheightscommunityfridge",
        "website": "http://rb.gy/koufel"
      },
      "photoUrl": "http://placekitten.com/300/345"
    },
    {
      "id": "fenixfridge",
      "name": "FENIX Fridge",
      "verified": false,
      "location": {
        "street": "586 Seneca Avenue",
        "city": "New York",
        "state": "NY",
        "zip": "11385",
        "geoLat": 40.7041427,
        "geoLng": -73.9103173780007
      },
      "maintainer": {
        "instagram": "https://www.instagram.com/fenixcommunityfridge"
      },
      "photoUrl": "http://placekitten.com/300/345"
    },
    {
      "id": "elmhurstcommunityfridge2",
      "name": "Elmhurst Community Fridge #2",
      "verified": false,
      "maintainer": {
        "instagram": "https://www.instagram.com/elmhurstcommunityfridge2",
        "website": "http://bit.ly/3j7YkBy",
        "email": "elmhurstcommunityfridge2@gmail.com"
      },
      "location": {
        "street": "77-02 Woodside Avenue",
        "city": "New York",
        "state": "NY",
        "zip": "11373",
        "geoLat": 40.743449,
        "geoLng": -73.887837
      },
      "photoUrl": "http://placekitten.com/300/345"
    },
    {
      "id": "rockawaymutualaidalmedaavenue",
      "name": "Rockaway Mutual Aid - Almeda Avenue",
      "verified": false,
      "location": {
        "street": "69-62 Almeda Avenue",
        "city": "New York",
        "state": "NY",
        "zip": "11692",
        "geoLat": 40.596882,
        "geoLng": -73.8009287
      },
      "maintainer": {
        "instagram": "https://www.instagram.com/rockawaymutualaid",
        "website": "http://linktr.ee/rockawaymutualaid"
      },
      "photoUrl": "http://placekitten.com/300/345"
    },
    {
      "id": "jamaicacommunityfridge1",
      "name": "Jamaica Community Fridge #1",
      "verified": false,
      "location": {
        "street": "107-58 Sutphin Boulevard",
        "city": "New York",
        "state": "NY",
        "zip": "11435",
        "geoLat": 40.6930826,
        "geoLng": -73.799676
      },
      "maintainer": {
        "instagram": "https://www.instagram.com/jamaicacommunityfridge",
        "website": "http://forms.gle/jmF5HpgEKHD7ctFF8"
      },
      "photoUrl": "http://placekitten.com/300/345"
    },
    {
      "id": "rockawaymutualaidbeach92ndstreet",
      "name": "Rockaway Mutual Aid - Beach 92nd Street",
      "verified": false,
      "location": {
        "street": "166 Beach 92nd Street",
        "city": "New York",
        "state": "NY",
        "zip": "11693",
        "geoLat": 40.585683700000004,
        "geoLng": -73.81458874999998
      },
      "maintainer": {
        "instagram": "https://www.instagram.com/rockawaymutualaid",
        "website": "http://linktr.ee/rockawaymutualaid"
      },
      "photoUrl": "http://placekitten.com/300/345"
    },
    {
      "id": "justusfaraithefridge",
      "name": "Justus Farai the Fridge",
      "verified": false,
      "location": {
        "street": "231-34 Merrick Boulevard",
        "city": "New York",
        "state": "NY",
        "zip": "11413",
        "geoLat": 40.6752317,
        "geoLng": -73.7383116
      },
      "maintainer": {
        "instagram": "https://www.instagram.com/laureltoncommunityfridge"
      },
      "photoUrl": "http://placekitten.com/300/345"
    },
    {
      "id": "rtucommunityfridge",
      "name": "RTU Community Fridge",
      "verified": false,
      "location": {
        "street": "955 Seneca Avenue",
        "city": "New York",
        "state": "NY",
        "zip": "11385",
        "geoLat": 40.7000279,
        "geoLng": -73.9027766
      },
      "maintainer": {
        "instagram": "https://www.instagram.com/ridgewoodtenantsunion",
        "website": "https://www.ridgewoodtenantsunion.org/"
      },
      "photoUrl": "http://placekitten.com/300/345"
    },
    {
      "id": "brotherswashdrycommunityfridge",
      "name": "Brothers Wash & Dry Community Fridge",
      "verified": false,
      "location": {
        "street": "54-26 Nurge Avenue",
        "city": "New York",
        "state": "NY",
        "zip": "11378",
        "geoLat": 40.715399,
        "geoLng": -73.910843,
        "name": "Brothers Wash & Dry"
      },
      "maintainer": {
        "instagram": "https://www.instagram.com/brotherswashndry",
        "website": "http://sampsondahl.com"
      },
      "photoUrl": "http://placekitten.com/300/345"
    },
    {
      "id": "coronacomunidadfridge",
      "name": "Corona Comunidad Fridge",
      "verified": false,
      "location": {
        "street": "104-05 47th Avenue",
        "city": "New York",
        "state": "NY",
        "zip": "11368",
        "geoLat": 40.745935200000005,
        "geoLng": -73.85931074670697,
        "name": "Tortilleria Nixtamal"
      },
      "maintainer": {
        "instagram": "https://www.instagram.com/CoronaComunidadFridge",
        "website": "https://linktr.ee/coronacomunidadfridge"
      },
      "photoUrl": "http://placekitten.com/300/345"
    },
    {
      "id": "jamaicacommunityfridge2",
      "name": "Jamaica Community Fridge #2",
      "verified": false,
      "location": {
        "street": "92-15 149th Street",
        "city": "New York",
        "state": "NY",
        "zip": "11435",
        "geoLat": 40.7017391,
        "geoLng": -73.8053557
      },
      "maintainer": {
        "instagram": "https://www.instagram.com/jamaicacommunityfridge",
        "website": "http://forms.gle/jmF5HpgEKHD7ctFF8"
      },
      "photoUrl": "http://placekitten.com/300/345"
    },
    {
      "id": "queensvillagecommunityfridge",
      "name": "Queens Village Community Fridge",
      "verified": false,
      "location": {
        "street": "190-03 Hollis Avenue",
        "city": "New York",
        "state": "NY",
        "zip": "11423",
        "geoLat": 40.70957,
        "geoLng": -73.767468
      },
      "maintainer": {
        "instagram": "https://www.instagram.com/qvcommunityfridge",
        "website": "http://linktr.ee/qvcommunityfridge"
      },
      "photoUrl": "http://placekitten.com/300/345"
    },
    {
      "id": "ravenswoodcommunityfridge",
      "name": "Ravenswood Community Fridge",
      "verified": false,
      "location": {
        "street": "12-14 36th Avenue",
        "city": "New York",
        "state": "NY",
        "zip": "11106",
        "geoLat": 40.7605726,
        "geoLng": -73.9388595
      },
      "maintainer": {
        "instagram": "https://www.instagram.com/ravenswoodfridge"
      },
      "photoUrl": "http://placekitten.com/300/345"
    },
    {
      "id": "ozoneparkcommunityfridge",
      "name": "Ozone Park Community Fridge",
      "verified": false,
      "location": {
        "street": "132-02 Liberty Avenue",
        "city": "New York",
        "state": "NY",
        "zip": "11419",
        "geoLat": 40.690548,
        "geoLng": -73.813862
      },
      "maintainer": {
        "instagram": "https://www.instagram.com/southsideactionpact"
      },
      "photoUrl": "http://placekitten.com/300/345"
    },
    {
      "id": "ridgewoodcommunityfridge",
      "name": "Ridgewood Community Fridge",
      "verified": false,
      "location": {
        "street": "612 Woodward Avenue",
        "city": "New York",
        "state": "NY",
        "zip": "11385",
        "geoLat": 40.7057463,
        "geoLng": -73.9074909
      },
      "maintainer": {
        "instagram": "https://www.instagram.com/woodbine.nyc",
        "website": "http://woodbine.nyc/mutualaid"
      },
      "photoUrl": "http://placekitten.com/300/345"
    },
    {
      "id": "astoriahalalfridge",
      "name": "Astoria Halal Fridge",
      "verified": false,
      "location": {
        "street": "25-75 Steinway Street",
        "city": "New York",
        "state": "NY",
        "zip": "11103",
        "geoLat": 40.7659946,
        "geoLng": -73.91298101122449
      },
      "maintainer": {
        "instagram": "https://www.instagram.com/astoriahalalfridge"
      },
      "photoUrl": "http://placekitten.com/300/345"
    },
    {
      "id": "saintalbanscommunityfridge",
      "name": "Saint Albans Community Fridge",
      "verified": false,
      "location": {
        "street": "172-17 Linden Boulevard",
        "city": "New York",
        "state": "NY",
        "zip": "11433",
        "geoLat": 40.6924179,
        "geoLng": -73.77767680425106,
        "name": "Saint Albans Congregational Church"
      },
      "maintainer": {
        "instagram": "https://www.instagram.com/stalbanscommunityfridge",
        "website": "https://linktr.ee/st.albanscommunityfridge"
      },
      "notes": "In front of the Robert Ross Johnson Family Life Center",
      "photoUrl": "http://placekitten.com/300/345"
    },
    {
      "id": "nexusfridge",
      "name": "Nexus Fridge",
      "verified": false,
      "location": {
        "street": "39-31 29th Street",
        "city": "New York",
        "state": "NY",
        "zip": "11101",
        "geoLat": 40.7527012,
        "geoLng": -73.9350775,
        "name": "Flux Factory"
      },
      "maintainer": {
        "instagram": "https://www.instagram.com/nexusfridge",
        "website": "https://linktr.ee/nexusfridge"
      },
      "photoUrl": "http://placekitten.com/300/345"
    },
    {
      "id": "flushingcommunityfridge",
      "name": "Flushing Community Fridge",
      "verified": false,
      "location": {
        "street": "136-23 Sanford Avenue",
        "city": "New York",
        "state": "NY",
        "zip": "11355",
        "geoLat": 40.75713255,
        "geoLng": -73.82817982051716
      },
      "maintainer": {
        "instagram": "https://www.instagram.com/flushingcommunityfridge",
        "website": "https://linktr.ee/flushingcommunityfridge"
      },
      "photoUrl": "http://placekitten.com/300/345"
    },
    {
      "id": "woodsidecommunityfridge",
      "name": "Woodside Community Fridge",
      "verified": false,
      "location": {
        "street": "50-27 31st Avenue",
        "city": "New York",
        "state": "NY",
        "zip": "11377",
        "geoLat": 40.7572375,
        "geoLng": -73.9080539
      },
      "maintainer": {
        "instagram": "https://www.instagram.com/woodsidefridge",
        "website": "https://swma.nyc/wcf"
      },
      "photoUrl": "http://placekitten.com/300/345"
    },
    {
      "id": "beautystrike",
      "name": "Beauty Strike",
      "verified": false,
      "location": {
        "street": "73 Washington Avenue",
        "city": "New York",
        "state": "NY",
        "zip": "11205",
        "geoLat": 40.696509,
        "geoLng": -73.967347
      },
      "maintainer": {
        "instagram": "https://www.instagram.com/beautystrikeny"
      },
      "photoUrl": "http://placekitten.com/300/345"
    },
    {
      "id": "crownheightscommunityfridge",
      "name": "Crown Heights Community Fridge",
      "verified": false,
      "location": {
        "street": "1144 Bergen Street",
        "city": "New York",
        "state": "NY",
        "zip": "11216",
        "geoLat": 40.67575415,
        "geoLng": -73.94781344792531
      },
      "maintainer": {
        "instagram": "https://www.instagram.com/bergencommunityfridge"
      },
      "photoUrl": "http://placekitten.com/300/345"
    },
    {
      "id": "downtownbrooklyncommunityfridge",
      "name": "Downtown Brooklyn Community Fridge",
      "verified": false,
      "location": {
        "street": "136 Lawrence Street",
        "city": "New York",
        "state": "NY",
        "zip": "11201",
        "geoLat": 40.6920518,
        "geoLng": -73.9864185
      },
      "maintainer": {
        "instagram": "https://www.instagram.com/dtbkfridge"
      },
      "photoUrl": "http://placekitten.com/300/345"
    },
    {
      "id": "friendlyfridgeflatbush",
      "name": "Friendly Fridge - Flatbush",
      "verified": false,
      "location": {
        "street": "1110 Nostrand Avenue",
        "city": "New York",
        "state": "NY",
        "zip": "11225",
        "geoLat": 40.66059,
        "geoLng": -73.950819
      },
      "maintainer": {
        "instagram": "https://www.instagram.com/flatbushfriendlyfridge"
      },
      "photoUrl": "http://placekitten.com/300/345"
    },
    {
      "id": "gowanusfridgenaturebased",
      "name": "Gowanus Fridge - Nature Based",
      "verified": false,
      "location": {
        "street": "123 3rd Street",
        "city": "New York",
        "state": "NY",
        "zip": "11231",
        "geoLat": 40.67697,
        "geoLng": -73.991601
      },
      "maintainer": {
        "instagram": "https://www.instagram.com/thegowanusfridge",
        "website": "http://forms.gle/pLdjsrE1PVxPTFQHA"
      },
      "photoUrl": "http://placekitten.com/300/345"
    },
    {
      "id": "gowanusfridgepostmarkcafe",
      "name": "Gowanus Fridge - Postmark Cafe",
      "verified": false,
      "location": {
        "street": "326 6th Street",
        "city": "New York",
        "state": "NY",
        "zip": "11215",
        "geoLat": 40.671071,
        "geoLng": -73.985199
      },
      "maintainer": {
        "instagram": "https://www.instagram.com/thegowanusfridge",
        "website": "http://forms.gle/pLdjsrE1PVxPTFQHA"
      },
      "photoUrl": "http://placekitten.com/300/345"
    },
    {
      "id": "greenpointfridge",
      "name": "Greenpoint Fridge",
      "verified": false,
      "location": {
        "street": "17 Nassau Avenue",
        "city": "New York",
        "state": "NY",
        "zip": "11222",
        "geoLat": 40.722877,
        "geoLng": -73.954146,
        "name": "The Lot Radio"
      },
      "maintainer": {
        "instagram": "https://www.instagram.com/greenpointfridge"
      },
      "photoUrl": "http://placekitten.com/300/345"
    },
    {
      "id": "playgroundcoffeeshop",
      "name": "Playground Coffee Shop",
      "verified": false,
      "location": {
        "street": "1114 Bedford Avenue",
        "city": "New York",
        "state": "NY",
        "zip": "11216",
        "geoLat": 40.6866024,
        "geoLng": -73.95480865648646
      },
      "maintainer": {
        "instagram": "https://www.instagram.com/playgroundcoffeeshop"
      },
      "photoUrl": "http://placekitten.com/300/345"
    },
    {
      "id": "sincerelytommy",
      "name": "Sincerely Tommy",
      "verified": false,
      "location": {
        "street": "343 Tompkins Avenue",
        "city": "New York",
        "state": "NY",
        "zip": "11221",
        "geoLat": 40.6860681,
        "geoLng": -73.9443146
      },
      "maintainer": {
        "instagram": "https://www.instagram.com/sincerelytommy_"
      },
      "photoUrl": "http://placekitten.com/300/345"
    },
    {
      "id": "livinggallery",
      "name": "Living Gallery",
      "verified": false,
      "location": {
        "street": "1094 Broadway",
        "city": "New York",
        "state": "NY",
        "zip": "11221",
        "geoLat": 40.694207,
        "geoLng": -73.930599
      },
      "maintainer": {
        "instagram": "https://www.instagram.com/the_living_gallery",
        "website": "http://linktr.ee/Thelivinggallery"
      },
      "photoUrl": "http://placekitten.com/300/345"
    },
    {
      "id": "universecityfridge",
      "name": "Universe City Fridge",
      "verified": false,
      "location": {
        "street": "234 Glenmore Avenue",
        "city": "New York",
        "state": "NY",
        "zip": "11207",
        "geoLat": 40.67219753846154,
        "geoLng": -73.9020948846154
      },
      "maintainer": {
        "instagram": "https://www.instagram.com/universecitynyc"
      },
      "photoUrl": "http://placekitten.com/300/345"
    },
    {
      "id": "inourheartsvanburen",
      "name": "In Our Hearts - Van Buren",
      "verified": false,
      "location": {
        "street": "133 Van Buren Street",
        "city": "New York",
        "state": "NY",
        "zip": "11221",
        "geoLat": 40.69053555,
        "geoLng": -73.94067625466758
      },
      "maintainer": {
        "instagram": "https://www.instagram.com/iohnyc"
      },
      "photoUrl": "http://placekitten.com/300/345"
    },
    {
      "id": "publicassistantscommunityfridge",
      "name": "Public Assistants Community Fridge",
      "verified": false,
      "location": {
        "street": "711 Franklin Avenue",
        "city": "New York",
        "state": "NY",
        "zip": "11216",
        "geoLat": 40.674284,
        "geoLng": -73.956511
      },
      "maintainer": {
        "instagram": "https://www.instagram.com/publicassistants",
        "website": "http://www.publicassistants.org"
      },
      "photoUrl": "http://placekitten.com/300/345"
    },
    {
      "id": "hashtaglunchbagbkxredhook",
      "name": "HashtagLunchbag BK x Red Hook",
      "verified": false,
      "location": {
        "street": "367 Columbia Street",
        "city": "New York",
        "state": "NY",
        "zip": "11231",
        "geoLat": 40.679498,
        "geoLng": -74.005209
      },
      "maintainer": {
        "instagram": "https://www.instagram.com/hashtaglunchbagbk",
        "website": "https://linktr.ee/PerfectlyAnaika"
      },
      "photoUrl": "http://placekitten.com/300/345"
    },
    {
      "id": "friendlyfridgeknickerbocker",
      "name": "Friendly Fridge - Knickerbocker",
      "verified": false,
      "location": {
        "street": "190 Knickerbocker Avenue",
        "city": "New York",
        "state": "NY",
        "zip": "11237",
        "geoLat": 40.703637,
        "geoLng": -73.9272235
      },
      "maintainer": {
        "instagram": "https://www.instagram.com/thefriendlyfridge"
      },
      "photoUrl": "http://placekitten.com/300/345"
    },
    {
      "id": "hairmetal",
      "name": "Hair Metal",
      "verified": false,
      "location": {
        "street": "578 Driggs Avenue",
        "city": "New York",
        "state": "NY",
        "zip": "11211",
        "geoLat": 40.7164659,
        "geoLng": -73.9572052
      },
      "maintainer": {
        "instagram": "https://www.instagram.com/hairmetalsalon"
      },
      "photoUrl": "http://placekitten.com/300/345"
    },
    {
      "id": "cooperparkfridge",
      "name": "Cooper Park Fridge",
      "verified": false,
      "location": {
        "street": "76 Kingsland Avenue",
        "city": "New York",
        "state": "NY",
        "zip": "11211",
        "geoLat": 40.7183849,
        "geoLng": -73.9402009
      },
      "maintainer": {
        "instagram": "https://www.instagram.com/cooperparkfridge",
        "website": "https://linktr.ee/northbrooklynmutualaid"
      },
      "photoUrl": "http://placekitten.com/300/345"
    },
    {
      "id": "koinoniajuanbautistachurchcommunityfridge",
      "name": "Koinonia Juan Bautista Church Community Fridge",
      "verified": false,
      "location": {
        "street": "98 Richards Street",
        "city": "New York",
        "state": "NY",
        "zip": "11231",
        "geoLat": 40.6788566,
        "geoLng": -74.0088169594481,
        "name": "Visitation of the Blessed Virgin Mary Roman Catholic Church"
      },
      "photoUrl": "http://placekitten.com/300/345"
    },
    {
      "id": "evergreenfreefridge",
      "name": "Evergreen Free Fridge",
      "verified": false,
      "location": {
        "street": "562 Evergreen Avenue",
        "city": "New York",
        "state": "NY",
        "zip": "11221",
        "geoLat": 40.6905271,
        "geoLng": -73.9161505
      },
      "maintainer": {
        "instagram": "https://www.instagram.com/evergreenfreefridge"
      },
      "photoUrl": "http://placekitten.com/300/345"
    },
    {
      "id": "solidarityfridge",
      "name": "Solidarity Fridge",
      "verified": false,
      "location": {
        "street": "315 East 16th Street",
        "city": "New York",
        "state": "NY",
        "zip": "11226",
        "geoLat": 40.6429095,
        "geoLng": -73.96358101823799,
        "name": "11226"
      },
      "photoUrl": "http://placekitten.com/300/345"
    },
    {
      "id": "bakeshopfridge",
      "name": "Bake Shop Fridge",
      "verified": false,
      "location": {
        "street": "995 Flushing Avenue",
        "city": "New York",
        "state": "NY",
        "zip": "11206",
        "geoLat": 40.7032349,
        "geoLng": -73.9328618
      },
      "maintainer": {
        "phone": "(718) 381-3706"
      },
      "photoUrl": "http://placekitten.com/300/345"
    },
    {
      "id": "friendlyfridgeheights",
      "name": "Friendly Fridge - Heights",
      "verified": false,
      "location": {
        "street": "461 Lincoln Place",
        "city": "New York",
        "state": "NY",
        "zip": "11238",
        "geoLat": 40.6723208,
        "geoLng": -73.9608401,
        "name": "461 Munchiez"
      },
      "maintainer": {
        "instagram": "https://www.instagram.com/theheightsfriendlyfridge"
      },
      "photoUrl": "http://placekitten.com/300/345"
    },
    {
      "id": "fortgreenecommunityfridge",
      "name": "Fort Greene Community Fridge",
      "verified": false,
      "location": {
        "street": "357 Myrtle Avenue",
        "city": "New York",
        "state": "NY",
        "zip": "11205",
        "geoLat": 40.693319,
        "geoLng": -73.971718
      },
      "maintainer": {
        "instagram": "https://www.instagram.com/fgcommunityfridge",
        "website": "http://linktr.ee/fgcommunityfridge"
      },
      "photoUrl": "http://placekitten.com/300/345"
    },
    {
      "id": "bushwickcommunityfridge",
      "name": "Bushwick Community Fridge",
      "verified": false,
      "location": {
        "street": "1643 Broadway",
        "city": "New York",
        "state": "NY",
        "zip": "11207",
        "geoLat": 40.684963,
        "geoLng": -73.913824
      },
      "maintainer": {
        "instagram": "https://www.instagram.com/thebushwickfridge"
      },
      "photoUrl": "http://placekitten.com/300/345"
    },
    {
      "id": "penniespantry",
      "name": "Pennies Pantry",
      "verified": false,
      "location": {
        "street": "535 Marcy Avenue",
        "city": "New York",
        "state": "NY",
        "zip": "11206",
        "geoLat": 40.6969936,
        "geoLng": -73.9493842
      },
      "maintainer": {
        "email": "penniespantrybk@gmail.com",
        "instagram": "https://www.instagram.com/penniespantrybk",
        "website": "https://linktr.ee/penniespantrybk"
      },
      "photoUrl": "http://placekitten.com/300/345"
    },
    {
      "id": "hashtaglunchbagbkxwyckofffarmhousemuseum",
      "name": "HashtagLunchbag BK x Wyckoff Farmhouse Museum",
      "verified": false,
      "location": {
        "street": "5816 Clarendon Road",
        "city": "New York",
        "state": "NY",
        "zip": "11203",
        "geoLat": 40.6443616,
        "geoLng": -73.9208761,
        "name": "Wyckoff House Museum"
      },
      "maintainer": {
        "instagram": "https://www.instagram.com/hashtaglunchbagbk",
        "website": "https://linktr.ee/PerfectlyAnaika"
      },
      "photoUrl": "http://placekitten.com/300/345"
    },
    {
      "id": "laneverademarcy",
      "name": "La Nevera de Marcy",
      "verified": false,
      "location": {
        "street": "280 Marcy Avenue",
        "city": "New York",
        "state": "NY",
        "zip": "11211",
        "geoLat": 40.70501,
        "geoLng": -73.95599750000001
      },
      "maintainer": {
        "instagram": "https://www.instagram.com/neverademarcy"
      },
      "photoUrl": "http://placekitten.com/300/345"
    },
    {
      "id": "brooklyncommunityfridgesflatbush",
      "name": "Brooklyn Community Fridges - Flatbush",
      "verified": false,
      "location": {
        "street": "625 Rogers Avenue",
        "city": "New York",
        "state": "NY",
        "zip": "11225",
        "geoLat": 40.656318850000005,
        "geoLng": -73.95284655860519
      },
      "maintainer": {
        "instagram": "https://www.instagram.com/bkfridges",
        "website": "http://linktr.ee/bk4bl"
      },
      "photoUrl": "http://placekitten.com/300/345"
    },
    {
      "id": "knowwastelandscommunityfridge",
      "name": "Know Waste Lands Community Fridge",
      "verified": false,
      "location": {
        "street": "1309 DeKalb Avenue",
        "city": "New York",
        "state": "NY",
        "zip": "11221",
        "geoLat": 40.698164999999996,
        "geoLng": -73.925404
      },
      "maintainer": {
        "email": "kwlfridge@gmail.com",
        "instagram": "https://www.instagram.com/kwlgarden",
        "website": "http://knowwastelands.org"
      },
      "notes": "TEMPORARILY OFFLINE (cannot accept food due to no electricity)",
      "photoUrl": "http://placekitten.com/300/345"
    },
    {
      "id": "2fish5loavesfridge",
      "name": "2 Fish 5 Loaves Fridge",
      "verified": false,
      "location": {
        "street": "63 Whipple Street",
        "city": "New York",
        "state": "NY",
        "zip": "11206",
        "geoLat": 40.701704250000006,
        "geoLng": -73.94450872865644
      },
      "maintainer": {
        "instagram": "https://www.instagram.com/2fish5loavesfridge"
      },
      "photoUrl": "http://placekitten.com/300/345"
    },
    {
      "id": "paperboylovegallery",
      "name": "Paperboy Love Gallery",
      "verified": false,
      "location": {
        "street": "1254 Myrtle Avenue",
        "city": "New York",
        "state": "NY",
        "zip": "11221",
        "geoLat": 40.697759,
        "geoLng": -73.927282
      },
      "maintainer": {
        "instagram": "https://www.instagram.com/paperboy.lovegallery"
      },
      "photoUrl": "http://placekitten.com/300/345"
    },
    {
      "id": "classoncommunityfridge",
      "name": "Classon Community Fridge",
      "verified": false,
      "location": {
        "street": "641 Classon Avenue",
        "city": "New York",
        "state": "NY",
        "zip": "11238",
        "geoLat": 40.67855745,
        "geoLng": -73.95853808690475
      },
      "maintainer": {
        "instagram": "https://www.instagram.com/Classon_Community_Fridge",
        "website": "https://linktr.ee/Classon_Community_Fridge"
      },
      "photoUrl": "http://placekitten.com/300/345"
    },
    {
      "id": "mixtecascommunityfridge",
      "name": "Mixteca's Community Fridge",
      "verified": false,
      "location": {
        "street": "245 23rd Street",
        "city": "New York",
        "state": "NY",
        "zip": "11215",
        "geoLat": 40.6601147,
        "geoLng": -73.9941986
      },
      "maintainer": {
        "instagram": "https://www.instagram.com/mixtecaorg",
        "website": "https://www.mixteca.org"
      },
      "photoUrl": "http://placekitten.com/300/345"
    },
    {
      "id": "copohalalcommunityfridge",
      "name": "COPO Halal Community Fridge",
      "verified": false,
      "location": {
        "street": "1077 Coney Island Avenue",
        "city": "New York",
        "state": "NY",
        "zip": "11230",
        "geoLat": 40.6313315,
        "geoLng": -73.96621703154759
      },
      "maintainer": {
        "instagram": "https://www.instagram.com/copousa"
      },
      "photoUrl": "http://placekitten.com/300/345"
    },
    {
      "id": "onlunchbreakxgirlsonlynyfridge",
      "name": "@onlunchbreak x @girlsonlyny Fridge",
      "verified": false,
      "location": {
        "street": "2423 Mermaid Avenue",
        "city": "New York",
        "state": "NY",
        "zip": "11224",
        "geoLat": 40.57602215,
        "geoLng": -73.99194985
      },
      "maintainer": {
        "instagram": "https://www.instagram.com/onlunchbreak"
      },
      "photoUrl": "http://placekitten.com/300/345"
    },
    {
      "id": "successgardencommunity",
      "name": "Success Garden Community",
      "verified": false,
      "location": {
        "street": "461 Williams Avenue",
        "city": "New York",
        "state": "NY",
        "zip": "11207",
        "geoLat": 40.663794255319154,
        "geoLng": -73.8975444680851
      },
      "maintainer": {
        "instagram": "https://www.instagram.com/successgardencommunity"
      },
      "photoUrl": "http://placekitten.com/300/345"
    },
    {
      "id": "onelovecommunityfridge",
      "name": "One Love Community Fridge",
      "verified": false,
      "location": {
        "street": "432 Myrtle Avenue",
        "city": "New York",
        "state": "NY",
        "zip": "11205",
        "geoLat": 40.693043,
        "geoLng": -73.968396
      },
      "maintainer": {
        "instagram": "https://www.instagram.com/Onelovecommunityfridge",
        "website": "http://www.onelovecommunityfridge.org"
      },
      "photoUrl": "http://placekitten.com/300/345"
    },
    {
      "id": "fultonstreetfridge",
      "name": "Fulton Street Fridge",
      "verified": false,
      "location": {
        "street": "991 Fulton Street",
        "city": "New York",
        "state": "NY",
        "zip": "11238",
        "geoLat": 40.68284,
        "geoLng": -73.963217
      },
      "maintainer": {
        "instagram": "https://www.instagram.com/fultonstfridge",
        "website": "https://linktr.ee/fultonstfridge/"
      },
      "photoUrl": "http://placekitten.com/300/345"
    },
    {
      "id": "bedfordparkcommunityfridge",
      "name": "Bedford Park Community Fridge",
      "verified": false,
      "location": {
        "street": "1 Bedford Park Boulevard",
        "city": "New York",
        "state": "NY",
        "zip": "10468",
        "geoLat": 40.8734189,
        "geoLng": -73.8891388
      },
      "maintainer": {
        "instagram": "https://www.instagram.com/bedfordparkcommunityfridge"
      },
      "photoUrl": "http://placekitten.com/300/345"
    },
    {
      "id": "sybcommunityfridge",
      "name": "SYB Community Fridge",
      "verified": false,
      "location": {
        "street": "237 McClellan Street",
        "city": "New York",
        "state": "NY",
        "zip": "10456",
        "geoLat": 40.832265899999996,
        "geoLng": -73.91622935571675
      },
      "maintainer": {
        "instagram": "https://www.instagram.com/1freedom4all"
      },
      "photoUrl": "http://placekitten.com/300/345"
    },
    {
      "id": "friendlyfridgebronx",
      "name": "Friendly Fridge - Bronx",
      "verified": false,
      "location": {
        "street": "5977 Broadway",
        "city": "New York",
        "state": "NY",
        "zip": "10463",
        "geoLat": 40.88975,
        "geoLng": -73.898535
      },
      "maintainer": {
        "instagram": "https://www.instagram.com/thefriendlyfridgebx"
      },
      "photoUrl": "http://placekitten.com/300/345"
    },
    {
      "id": "allertonalliescommunityfridge",
      "name": "Allerton Allies Community Fridge",
      "verified": false,
      "location": {
        "street": "2527 Boston Road",
        "city": "New York",
        "state": "NY",
        "zip": "10467",
        "geoLat": 40.86401,
        "geoLng": -73.864721
      },
      "maintainer": {
        "instagram": "https://www.instagram.com/allertonalliesfridge"
      },
      "photoUrl": "http://placekitten.com/300/345"
    },
    {
      "id": "lovingthebronxfridge",
      "name": "Loving the Bronx Fridge",
      "verified": false,
      "location": {
        "street": "88 Hugh J. Grant Circle",
        "city": "New York",
        "state": "NY",
        "zip": "10472",
        "geoLat": 40.83332398979592,
        "geoLng": -73.86147191836734
      },
      "maintainer": {
        "phone": "(347) 992-2860",
        "instagram": "https://www.instagram.com/lovingthebronx"
      },
      "notes": "Do NOT place any items in the refrigerator.\nIf you would like to donate food, send us a direct message, or text us at 347 992 2860. We will arrange to meet you",
      "photoUrl": "http://placekitten.com/300/345"
    },
    {
      "id": "motthavenfridge1",
      "name": "Mott Haven Fridge #1",
      "verified": false,
      "location": {
        "street": "297 Brook Avenue",
        "city": "New York",
        "state": "NY",
        "zip": "10454",
        "geoLat": 40.8090972,
        "geoLng": -73.9185003
      },
      "maintainer": {
        "email": "info@motthavenfridge.com",
        "instagram": "https://www.instagram.com/motthavenfridge/",
        "website": "https://www.motthavenfridge.com/"
      },
      "photoUrl": "http://placekitten.com/300/345"
    },
    {
      "id": "nuestranevera",
      "name": "Nuestra Nevera",
      "verified": false,
      "location": {
        "street": "737 East 156th Street",
        "city": "New York",
        "state": "NY",
        "zip": "10456",
        "geoLat": 40.8182998,
        "geoLng": -73.906351
      },
      "maintainer": {
        "instagram": "https://www.instagram.com/nuestraxnevera",
        "website": "http://linktr.ee/bumdsa"
      },
      "photoUrl": "http://placekitten.com/300/345"
    },
    {
      "id": "soundviewcommunityfridge",
      "name": "Soundview Community Fridge",
      "verified": false,
      "location": {
        "street": "400 Soundview Avenue",
        "city": "New York",
        "state": "NY",
        "zip": "10473",
        "geoLat": 40.8135149,
        "geoLng": -73.85765
      },
      "maintainer": {
        "name": "Desiree Joy Frias",
        "instagram": "https://www.instagram.com/nuestraxnevera"
      },
      "photoUrl": "http://placekitten.com/300/345"
    },
    {
      "id": "motthavenfridge2",
      "name": "Mott Haven Fridge #2",
      "verified": false,
      "location": {
        "street": "574 East 141st Street",
        "city": "New York",
        "state": "NY",
        "zip": "10454",
        "geoLat": 40.808354800000004,
        "geoLng": -73.91583282000796
      },
      "maintainer": {
        "instagram": "https://www.instagram.com/motthavenfridge",
        "website": "https://www.motthavenfridge.com/"
      },
      "photoUrl": "http://placekitten.com/300/345"
    },
    {
      "id": "anchorfridge",
      "name": "Anchor Fridge",
      "verified": false,
      "location": {
        "street": "239 City Island Avenue",
        "city": "New York",
        "state": "NY",
        "zip": "10464",
        "geoLat": 40.844986500000005,
        "geoLng": -73.78592059779425
      },
      "maintainer": {
        "instagram": "https://www.instagram.com/anchorfridge",
        "website": "http://www.linktr.ee/southbronxmutualaid"
      },
      "photoUrl": "http://placekitten.com/300/345"
    },
    {
      "id": "fjmfridge",
      "name": "FJM Fridge",
      "verified": false,
      "location": {
        "street": "260 West 231st Street",
        "city": "New York",
        "state": "NY",
        "zip": "10463",
        "geoLat": 40.880019,
        "geoLng": -73.907255
      },
      "maintainer": {
        "instagram": "https://www.instagram.com/food_justice_ministry",
        "website": "http://linktr.ee/foodjusticeministry"
      },
      "photoUrl": "http://placekitten.com/300/345"
    },
    {
      "id": "yonkerscommunityfridge",
      "name": "Yonkers Community Fridge",
      "verified": false,
      "location": {
        "street": "17 Riverdale Avenue",
        "city": "Yonkers",
        "state": "NY",
        "zip": "10701",
        "geoLat": 40.93300672015364,
        "geoLng": -73.9002516758224
      },
      "maintainer": {
        "instagram": "https://www.instagram.com/yonkerscommunityfridge"
      },
      "photoUrl": "http://placekitten.com/300/345"
    },
    {
      "id": "neighborhoodfridge",
      "name": "Neighborhood Fridge",
      "verified": false,
      "location": {
        "street": "5540 Mosholu Avenue",
        "city": "New York",
        "state": "NY",
        "zip": "10471",
        "geoLat": 40.90366705,
        "geoLng": -73.90272705322482,
        "name": "Riverdale Library"
      },
      "maintainer": {
        "instagram": "https://www.instagram.com/theneighborhoodfridge",
        "website": "https://linktr.ee/theneighborhoodfridge"
      },
      "photoUrl": "http://placekitten.com/300/345"
    },
    {
      "id": "forestavenuecomeunityfridge",
      "name": "Forest Avenue ComeUnity Fridge",
      "verified": false,
      "location": {
        "street": "2142 Forest Avenue",
        "city": "New York",
        "state": "NY",
        "zip": "10303",
        "geoLat": 40.62648790909091,
        "geoLng": -74.16090545454546
      },
      "maintainer": {
        "instagram": "https://www.instagram.com/forestavecomeunityfridge",
        "website": "https://www.facebook.com/forestavecomeunityfridge/"
      },
      "photoUrl": "http://placekitten.com/300/345"
    },
    {
      "id": "kingstoncommunityfridgevanburen",
      "name": "Kingston Community Fridge - Van Buren",
      "verified": false,
      "location": {
        "street": "14 Van Buren Street",
        "city": "Kingston",
        "state": "NY",
        "zip": "12401",
        "geoLat": 41.930009299999995,
        "geoLng": -74.00731654893085
      },
      "maintainer": {
        "instagram": "https://www.instagram.com/kingstoncommunityfridge",
        "website": "https://www.facebook.com/kingstoncommunityfridge/"
      },
      "photoUrl": "http://placekitten.com/300/345"
    },
    {
      "id": "buffalocommunityfridge",
      "name": "Buffalo Community Fridge",
      "verified": false,
      "location": {
        "street": "257 East Ferry Street",
        "city": "Buffalo",
        "state": "NY",
        "zip": "14208",
        "geoLat": 42.9149516,
        "geoLng": -78.8547615
      },
      "maintainer": {
        "instagram": "https://www.instagram.com/buffalocommunityfridge"
      },
      "photoUrl": "http://placekitten.com/300/345"
    },
    {
      "id": "kingstoncommunityfridgeclintonavenue",
      "name": "Kingston Community Fridge - Clinton Avenue",
      "verified": false,
      "location": {
        "street": "122 Clinton Avenue",
        "city": "Kingston",
        "state": "NY",
        "zip": "12401",
        "geoLat": 41.929698450000004,
        "geoLng": -74.01215210000001,
        "name": "Clinton Avenue Methodist Church"
      },
      "maintainer": {
        "instagram": "https://www.instagram.com/kingstoncommunityfridge",
        "website": "https://www.facebook.com/kingstoncommunityfridge/"
      },
      "photoUrl": "http://placekitten.com/300/345"
    },
    {
      "id": "greenvillecommunityfridge",
      "name": "Greenville Community Fridge",
      "verified": false,
      "location": {
        "street": "57 Rose Avenue",
        "city": "Jersey City",
        "state": "NJ",
        "zip": "07305",
        "geoLat": 40.700012,
        "geoLng": -74.09015
      },
      "maintainer": {
        "instagram": "https://www.instagram.com/GreenvilleCommunityFridge"
      },
      "photoUrl": "http://placekitten.com/300/345"
    },
    {
      "id": "unioncitycommunityfridge",
      "name": "Union City Community Fridge",
      "verified": false,
      "location": {
        "street": "709 15th Street",
        "city": "Union City",
        "state": "NJ",
        "zip": "07087",
        "geoLat": 40.76273637688739,
        "geoLng": -74.03923744745303
      },
      "maintainer": {
        "instagram": "https://www.instagram.com/ucfridge"
      },
      "photoUrl": "http://placekitten.com/300/345"
    },
    {
      "id": "westsidecommunityfridge",
      "name": "West Side Community Fridge",
      "verified": false,
      "location": {
        "street": "224 Delaware Avenue",
        "city": "Jersey City",
        "state": "NJ",
        "zip": "07306",
        "geoLat": 40.72754376271187,
        "geoLng": -74.07707477966102
      },
      "maintainer": {
        "instagram": "https://www.instagram.com/westsidecommunityfridge",
        "website": "http://linktr.ee/westsidecommunityfridge"
      },
      "photoUrl": "http://placekitten.com/300/345"
    },
    {
      "id": "foodforus",
      "name": "Food For Us",
      "verified": false,
      "location": {
        "street": "6510 Palisade Avenue",
        "city": "West New York",
        "state": "NJ",
        "zip": "07093",
        "geoLat": 40.792199,
        "geoLng": -74.010348
      },
      "maintainer": {
        "instagram": "https://www.instagram.com/foodforusnj"
      },
      "photoUrl": "http://placekitten.com/300/345"
    },
    {
      "id": "jcheightscommunityfridge",
      "name": "JC Heights Community Fridge",
      "verified": false,
      "location": {
        "street": "372 Webster Avenue",
        "city": "Jersey City",
        "state": "NJ",
        "zip": "07307",
        "geoLat": 40.751017,
        "geoLng": -74.041621
      },
      "maintainer": {
        "instagram": "https://www.instagram.com/jcheightscommunityfridge/",
        "website": "https://linktr.ee/jcheightscommunityfridge"
      },
      "photoUrl": "http://placekitten.com/300/345"
    },
    {
      "id": "collectivefocusresourcehub",
      "name": "Collective Focus Resource Hub",
      "verified": false,
      "location": {
        "street": "1046 Broadway",
        "city": "New York",
        "state": "NY",
        "zip": "11221",
        "geoLat": 40.695189,
        "geoLng": -73.932345
      },
      "maintainer": {
        "instagram": "https://www.instagram.com/collectivefocushub"
      },
      "photoUrl": "http://placekitten.com/300/345"
    },
    {
      "id": "farmtopeoplecommunityfridge",
      "name": "Farm to People Community Fridge",
      "verified": false,
      "location": {
        "street": "1100 Flushing Avenue",
        "city": "New York",
        "state": "NY",
        "zip": "11237",
        "geoLat": 40.7051413,
        "geoLng": -73.92706200131855
      },
      "maintainer": {
        "instagram": "https://www.instagram.com/farmtopeople"
      },
      "photoUrl": "http://placekitten.com/300/345"
    },
    {
      "id": "uticacommunityfridge",
      "name": "Utica Community Fridge",
      "verified": false,
      "location": {
        "street": "112 South Street",
        "city": "Utica",
        "state": "NY",
        "zip": "13501",
        "geoLat": 43.0962845,
        "geoLng": -75.2346536
      },
      "maintainer": {
        "instagram": "https://www.instagram.com/uticacommunityfridge"
      },
      "photoUrl": "http://placekitten.com/300/345"
    },
    {
      "id": "brooklyncommunityfridgescrownheights",
      "name": "Brooklyn Community Fridges - Crown Heights",
      "verified": false,
      "location": {
        "street": "1148 Union Street",
        "city": "New York",
        "state": "NY",
        "zip": "11225",
        "geoLat": 40.66900205,
        "geoLng": -73.95365084817391
      },
      "maintainer": {
        "instagram": "https://www.instagram.com/bkfridges",
        "website": "http://linktr.ee/bk4bl"
      },
      "photoUrl": "http://placekitten.com/300/345"
    },
    {
      "id": "fridgesfamily",
      "name": "Fridges & Family",
      "verified": false,
      "location": {
        "street": "1149 South 9th Street",
        "city": "Philadelphia",
        "state": "PA",
        "zip": "19147",
        "geoLat": 39.935031200000005,
        "geoLng": -75.158604
      },
      "maintainer": {
        "instagram": "https://www.instagram.com/fridgesandfamily"
      },
      "photoUrl": "http://placekitten.com/300/345"
    },
    {
      "id": "brooklynheightscommunityfridge",
      "name": "Brooklyn Heights Community Fridge",
      "verified": false,
      "location": {
        "street": "124 Henry Street",
        "city": "New York",
        "state": "NY",
        "zip": "11201",
        "geoLat": 40.696995,
        "geoLng": -73.993431
      },
      "maintainer": {
        "instagram": "https://www.instagram.com/brooklynheightscommunityfridge"
      },
      "photoUrl": "http://placekitten.com/300/345"
    },
    {
      "id": "kwtcommunityfridge",
      "name": "KWT Community Fridge",
      "verified": false,
      "location": {
        "street": "137 East 2nd Street",
        "city": "New York",
        "state": "NY",
        "zip": "10009",
        "geoLat": 40.7230038,
        "geoLng": -73.98635715974333
      },
      "maintainer": {
        "instagram": "https://www.instagram.com/kwtfridge"
      },
      "photoUrl": "http://placekitten.com/300/345"
    },
    {
      "id": "leonwrightlittlefreepantry",
      "name": "Leon Wright Little Free Pantry",
      "verified": false,
      "location": {
        "street": "144 Hull Street",
        "city": "New York",
        "state": "NY",
        "zip": "11233",
        "geoLat": 40.679435350000006,
        "geoLng": -73.91009056174387
      },
      "maintainer": {
        "instagram": "https://www.instagram.com/hullstreetblockassociation"
      },
      "photoUrl": "http://placekitten.com/300/345"
    },
    {
      "id": "eileensfreebodega",
      "name": "Eileens Free Bodega",
      "verified": false,
      "location": {
        "street": "155 Third Street",
        "city": "Keyport",
        "state": "NJ",
        "zip": "07735",
        "geoLat": 40.437275,
        "geoLng": -74.192853
      },
      "maintainer": {
        "instagram": "https://www.instagram.com/eileensfreebodega_"
      },
      "photoUrl": "http://placekitten.com/300/345"
    },
    {
      "id": "saintnickfridge",
      "name": "Saint Nick Fridge",
      "verified": false,
      "location": {
        "street": "176 Saint Nicholas Avenue",
        "city": "New York",
        "state": "NY",
        "zip": "11237",
        "geoLat": 40.70406485,
        "geoLng": -73.91621383866075,
        "name": "Bushwick Abbey"
      },
      "maintainer": {
        "instagram": "https://www.instagram.com/stnickfridge"
      },
      "photoUrl": "http://placekitten.com/300/345"
    },
    {
      "id": "motthavencommunityfridge",
      "name": "Mott Haven Community Fridge",
      "verified": false,
      "location": {
        "street": "185 East 85th Street",
        "city": "New York",
        "state": "NY",
        "zip": "10028",
        "geoLat": 40.7785447,
        "geoLng": -73.954845
      },
      "photoUrl": "http://placekitten.com/300/345"
    },
    {
      "id": "inourheartswestfarms",
      "name": "In Our Hearts - West Farms",
      "verified": false,
      "location": {
        "street": "1939 West Farms Road",
        "city": "New York",
        "state": "NY",
        "zip": "10460",
        "geoLat": 40.83904002040039,
        "geoLng": -73.88085618225176
      },
      "photoUrl": "http://placekitten.com/300/345"
    },
    {
      "id": "fridgeportjamesstreet",
      "name": "Fridgeport - James Street",
      "verified": false,
      "location": {
        "street": "219 James Street",
        "city": "Bridgeport",
        "state": "CT",
        "zip": "06604",
        "geoLat": 41.1821854,
        "geoLng": -73.1987195
      },
      "maintainer": {
        "instagram": "https://www.instagram.com/fridgeport"
      },
      "photoUrl": "http://placekitten.com/300/345"
    },
    {
      "id": "essexmarketplantbasedcommunityfridge",
      "name": "Essex Market Plant-Based Community Fridge",
      "verified": false,
      "location": {
        "street": "220 Broome Street",
        "city": "New York",
        "state": "NY",
        "zip": "10002",
        "geoLat": 40.71784438095238,
        "geoLng": -73.9890200952381
      },
      "photoUrl": "http://placekitten.com/300/345"
    },
    {
      "id": "fridgehaven",
      "name": "Fridge Haven",
      "verified": false,
      "location": {
        "street": "242 Dixwell Avenue",
        "city": "New Haven",
        "state": "CT",
        "zip": "06511",
        "geoLat": 41.3194993,
        "geoLng": -72.9343647
      },
      "maintainer": {
        "instagram": "https://www.instagram.com/Fridgehaven"
      },
      "photoUrl": "http://placekitten.com/300/345"
    },
    {
      "id": "wedoittoofridge",
      "name": "We Do It Too Fridge",
      "verified": false,
      "location": {
        "street": "2837 Frederick Douglass Boulevard",
        "city": "New York",
        "state": "NY",
        "zip": "10039",
        "geoLat": 40.8268962,
        "geoLng": -73.939288436322
      },
      "maintainer": {
        "instagram": "https://www.instagram.com/Wefridgetoo"
      },
      "photoUrl": "http://placekitten.com/300/345"
    },
    {
      "id": "eastelmhurstfridge",
      "name": "East Elmhurst Fridge",
      "verified": false,
      "location": {
        "street": "32-37 Junction Boulevard",
        "city": "New York",
        "state": "NY",
        "zip": "11369",
        "geoLat": 40.75764635,
        "geoLng": -73.87386342776941
      },
      "photoUrl": "http://placekitten.com/300/345"
    },
    {
      "id": "hashtaglunchbagbkxfortdefiance",
      "name": "HashtagLunchbag BK x Fort Defiance",
      "verified": false,
      "location": {
        "street": "347 Van Brunt Street",
        "city": "New York",
        "state": "NY",
        "zip": "11231",
        "geoLat": 40.67710495,
        "geoLng": -74.01282123900364
      },
      "maintainer": {
        "instagram": "https://www.instagram.com/hashtaglunchbagbk",
        "website": "https://linktr.ee/PerfectlyAnaika"
      },
      "photoUrl": "http://placekitten.com/300/345"
    },
    {
      "id": "nychadyckmanhouses",
      "name": "NYCHA Dyckman Houses",
      "verified": false,
      "location": {
        "street": "3758 10th Avenue",
        "city": "New York",
        "state": "NY",
        "zip": "10034",
        "geoLat": 40.86098,
        "geoLng": -73.9219493
      },
      "photoUrl": "http://placekitten.com/300/345"
    },
    {
      "id": "transmitterparkfridge",
      "name": "Transmitter Park Fridge",
      "verified": false,
      "location": {
        "street": "38-04 Greenpoint Avenue",
        "city": "New York",
        "state": "NY",
        "zip": "11101",
        "geoLat": 40.7382092,
        "geoLng": -73.9278923
      },
      "photoUrl": "http://placekitten.com/300/345"
    },
    {
      "id": "portchesterfriendlyfridge",
      "name": "Port Chester Friendly Fridge",
      "verified": false,
      "location": {
        "street": "400 Westchester Avenue",
        "city": "Port Chester",
        "state": "NY",
        "zip": "10573",
        "geoLat": 41.0045693,
        "geoLng": -73.672907
      },
      "maintainer": {
        "instagram": "https://www.instagram.com/thepcfriendlyfridge/?hl=en"
      },
      "photoUrl": "http://placekitten.com/300/345"
    },
    {
      "id": "vinnyspetstorecommunityfridge",
      "name": "Vinny's Pet Store Community Fridge",
      "verified": false,
      "location": {
        "street": "451 Bay Ridge Avenue",
        "city": "New York",
        "state": "NY",
        "zip": "11220",
        "geoLat": 40.63411595,
        "geoLng": -74.02196570642596
      },
      "maintainer": {
        "instagram": "https://www.instagram.com/Vinnyspetshop"
      },
      "photoUrl": "http://placekitten.com/300/345"
    },
    {
      "id": "loisaidacommunityfridge",
      "name": "Loisaida CommUnity Fridge",
      "verified": false,
      "location": {
        "street": "602 East 9th Street",
        "city": "New York",
        "state": "NY",
        "zip": "10009",
        "geoLat": 40.7260202,
        "geoLng": -73.98012276021979,
        "name": "Trinity Lower East Side"
      },
      "maintainer": {
        "instagram": "https://www.instagram.com/loisaidafridge"
      },
      "photoUrl": "http://placekitten.com/300/345"
    },
    {
      "id": "hellskitchencommunitycupboard",
      "name": "Hell's Kitchen Community Cupboard",
      "verified": false,
      "location": {
        "street": "645 10th Avenue",
        "city": "New York",
        "state": "NY",
        "zip": "10036",
        "geoLat": 40.7620639,
        "geoLng": -73.9939254
      },
      "maintainer": {
        "instagram": "https://www.instagram.com/hkfridge"
      },
      "photoUrl": "http://placekitten.com/300/345"
    },
    {
      "id": "northbrooklynfridgesmusichall",
      "name": "North Brooklyn Fridges - Music Hall",
      "verified": false,
      "location": {
        "street": "66 North 6th Street",
        "city": "New York",
        "state": "NY",
        "zip": "11249",
        "geoLat": 40.719152300000005,
        "geoLng": -73.96178357116047,
        "name": "Music Hall of Williamsburg"
      },
      "maintainer": {
        "instagram": "https://www.instagram.com/nbkfridges",
        "website": "https://linktr.ee/Nbkfridges"
      },
      "photoUrl": "http://placekitten.com/300/345"
    },
    {
      "id": "viequessolidaritylibrary",
      "name": "Vieques Solidarity Library",
      "verified": false,
      "location": {
        "street": "791 East 158th Street",
        "city": "New York",
        "state": "NY",
        "zip": "10456",
        "geoLat": 40.81914285714286,
        "geoLng": -73.90380071428571
      },
      "maintainer": {
        "instagram": "https://www.instagram.com/nuestraxnevera"
      },
      "photoUrl": "http://placekitten.com/300/345"
    },
    {
      "id": "flatbushcommunityfridge",
      "name": "Flatbush Community Fridge",
      "verified": false,
      "location": {
        "street": "830 Rogers Avenue",
        "city": "New York",
        "state": "NY",
        "zip": "11226",
        "geoLat": 40.6502762,
        "geoLng": -73.9525846
      },
      "maintainer": {
        "instagram": "https://www.instagram.com/flatbushcommunityfridge"
      },
      "photoUrl": "http://placekitten.com/300/345"
    },
    {
      "id": "hectorrafaelperez",
      "name": "Hector Rafael Perez",
      "verified": false,
      "location": {
        "street": "839 Halsey Street",
        "city": "New York",
        "state": "NY",
        "zip": "11233",
        "geoLat": 40.6855108,
        "geoLng": -73.91903355364005
      },
      "photoUrl": "http://placekitten.com/300/345"
    },
    {
      "id": "clementsmileycommunityfridge",
      "name": "Clement Smiley Community Fridge",
      "verified": false,
      "location": {
        "street": "93-01 Astoria Boulevard",
        "city": "New York",
        "state": "NY",
        "zip": "11369",
        "geoLat": 40.76334,
        "geoLng": -73.876162
      },
      "maintainer": {
        "instagram": "https://www.instagram.com/iotabro"
      },
      "photoUrl": "http://placekitten.com/300/345"
    },
    {
      "id": "pincommunityfridge",
      "name": "PIN Community Fridge",
      "verified": false,
      "location": {
        "street": "944 Newkirk Avenue",
        "city": "New York",
        "state": "NY",
        "zip": "11230",
        "geoLat": 40.6335233,
        "geoLng": -73.967415
      },
      "photoUrl": "http://placekitten.com/300/345"
    },
    {
      "id": "chinatowncommunityfridgepantry",
      "name": "Chinatown Community Fridge & Pantry",
      "verified": false,
      "location": {
        "street": "96 Baxter Street",
        "city": "New York",
        "state": "NY",
        "zip": "10013",
        "geoLat": 40.7172118,
        "geoLng": -73.9996427
      },
      "maintainer": {
        "instagram": "https://www.instagram.com/chinatown.communityfridge"
      },
      "photoUrl": "http://placekitten.com/300/345"
    },
    {
      "id": "maspethfridge",
      "name": "Maspeth Fridge",
      "verified": false,
      "location": {
        "street": "54-20 Nurge Avenue",
        "city": "New York",
        "state": "NY",
        "zip": "11378",
        "geoLat": 40.7145983,
        "geoLng": -73.9117254
      },
      "maintainer": {
        "instagram": "https://www.instagram.com/iohnyc"
      },
      "photoUrl": "http://placekitten.com/300/345"
    },
    {
      "id": "fridgeetc",
      "name": "Fridge Etc.",
      "verified": false,
      "location": {
        "street": "2936 Colerain Avenue",
        "city": "Cincinnati",
        "state": "OH",
        "zip": "45225",
        "geoLat": 39.135825,
        "geoLng": -84.536666
      },
      "maintainer": {
        "website": "https://www.etcproduce.com/the-fridge-etc"
      },
      "photoUrl": "http://placekitten.com/300/345"
    },
    {
      "id": "covunityfridge",
      "name": "COVUNITY Fridge",
      "verified": false,
      "location": {
        "street": "909 Scott Street",
        "city": "Covington",
        "state": "KY",
        "zip": "41011",
        "geoLat": 39.081137,
        "geoLng": -84.508031
      },
      "maintainer": {
        "website": "http://reddengardens.org/"
      },
      "photoUrl": "http://placekitten.com/300/345"
    },
    {
      "id": "northbrooklynfridgesleonardlibrary",
      "name": "North Brooklyn Fridges - Leonard Library",
      "verified": false,
      "location": {
        "street": "81 Devoe Street",
        "city": "Brooklyn",
        "state": "NY",
        "zip": "11211",
        "geoLat": 40.71358,
        "geoLng": -73.94793,
        "name": "Brooklyn Public Library - Leonard Branch"
      },
      "maintainer": {
        "instagram": "https://www.instagram.com/nbkfridges",
        "website": "https://linktr.ee/Nbkfridges"
      },
      "photoUrl": "http://placekitten.com/300/345"
    }
  ],
  "reports": [
    {
      "fridgeId": "lescommunityfridge",
      "timestamp": "2022-11-11T01:43:23.874Z",
      "condition": "out of order",
      "foodPercentage": 0,
      "photoUrl": "http://placekitten.com/200/300",
      "notes": "Ad nihil vel molestiae aut deserunt molestias qui ullam nihil.",
      "id": 1
    },
    {
      "fridgeId": "barriofridge1",
      "timestamp": "2022-11-10T14:57:55.681Z",
      "condition": "out of order",
      "foodPercentage": 3,
      "photoUrl": "http://placekitten.com/200/300",
      "notes": "Soluta et eum labore laudantium ut sed ducimus impedit quas.",
      "id": 2
    },
    {
      "fridgeId": "harlemcommunityfridge",
      "timestamp": "2022-11-10T07:43:05.951Z",
      "condition": "ghost",
      "foodPercentage": 0,
      "photoUrl": "http://placekitten.com/200/300",
      "notes": "Ipsum ut ipsa quisquam molestias temporibus numquam deserunt est.",
      "id": 3
    },
    {
      "fridgeId": "uptownfridge",
      "timestamp": "2022-11-10T09:09:20.142Z",
      "condition": "out of order",
      "foodPercentage": 3,
      "photoUrl": "http://placekitten.com/200/300",
      "notes": "Et vel sed molestias.",
      "id": 4
    },
    {
      "fridgeId": "madisonsquareboysandgirlsclub",
      "timestamp": "2022-11-10T06:30:10.944Z",
      "condition": "out of order",
      "foodPercentage": 2,
      "photoUrl": "http://placekitten.com/200/300",
      "notes": "Eveniet omnis necessitatibus molestias optio blanditiis.",
      "id": 5
    },
    {
      "fridgeId": "westharlemcommunityfridge",
      "timestamp": "2022-11-11T03:30:23.811Z",
      "condition": "good",
      "foodPercentage": 0,
      "photoUrl": "http://placekitten.com/200/300",
      "notes": "Eum ut dolorem fugit dolores rerum dolore.",
      "id": 6
    },
    {
      "fridgeId": "communityfridgewest120thstreet",
      "timestamp": "2022-11-11T00:05:42.075Z",
      "condition": "dirty",
      "foodPercentage": 1,
      "photoUrl": "http://placekitten.com/200/300",
      "notes": "Ipsa consequuntur nihil quia commodi et ipsum repudiandae et.",
      "id": 7
    },
    {
      "fridgeId": "peoplesfridgewordup",
      "timestamp": "2022-11-10T14:14:22.944Z",
      "condition": "ghost",
      "foodPercentage": 2,
      "photoUrl": "http://placekitten.com/200/300",
      "notes": "Laudantium laboriosam qui quibusdam veritatis incidunt.",
      "id": 8
    },
    {
      "fridgeId": "ujamaasolidarityfridge",
      "timestamp": "2022-11-11T04:42:46.878Z",
      "condition": "good",
      "foodPercentage": 0,
      "photoUrl": "http://placekitten.com/200/300",
      "notes": "Magni praesentium laudantium illo cum.",
      "id": 9
    },
    {
      "fridgeId": "sixthstreetcommunitycenterfridge",
      "timestamp": "2022-11-10T22:10:24.976Z",
      "condition": "out of order",
      "foodPercentage": 1,
      "photoUrl": "http://placekitten.com/200/300",
      "notes": "Veniam in voluptatem.",
      "id": 10
    },
    {
      "fridgeId": "sugarhillcommunityfridges",
      "timestamp": "2022-11-10T22:50:39.600Z",
      "condition": "ghost",
      "foodPercentage": 0,
      "photoUrl": "http://placekitten.com/200/300",
      "notes": "Sint veniam ipsum consequatur delectus ab porro.",
      "id": 11
    },
    {
      "fridgeId": "westendcommunityfridge",
      "timestamp": "2022-11-10T16:15:29.670Z",
      "condition": "good",
      "foodPercentage": 3,
      "photoUrl": "http://placekitten.com/200/300",
      "notes": "Animi reprehenderit magnam velit.",
      "id": 12
    },
    {
      "fridgeId": "peoplespeoplesfridge",
      "timestamp": "2022-11-10T08:08:08.712Z",
      "condition": "out of order",
      "foodPercentage": 1,
      "photoUrl": "http://placekitten.com/200/300",
      "notes": "Sit necessitatibus et unde debitis possimus tempore est vitae.",
      "id": 13
    },
    {
      "fridgeId": "smaccommunityfridge",
      "timestamp": "2022-11-10T07:59:06.007Z",
      "condition": "dirty",
      "foodPercentage": 2,
      "photoUrl": "http://placekitten.com/200/300",
      "notes": "Voluptas voluptatem nostrum porro ut facere.",
      "id": 14
    },
    {
      "fridgeId": "broomeboweryfridge",
      "timestamp": "2022-11-11T02:24:49.840Z",
      "condition": "not at location",
      "foodPercentage": 3,
      "photoUrl": "http://placekitten.com/200/300",
      "notes": "Voluptas eius nihil.",
      "id": 15
    },
    {
      "fridgeId": "lanevera183",
      "timestamp": "2022-11-10T17:53:49.108Z",
      "condition": "dirty",
      "foodPercentage": 1,
      "photoUrl": "http://placekitten.com/200/300",
      "notes": "At ullam voluptatum.",
      "id": 16
    },
    {
      "fridgeId": "overthrowcommunityfridge",
      "timestamp": "2022-11-10T14:06:56.827Z",
      "condition": "good",
      "foodPercentage": 1,
      "photoUrl": "http://placekitten.com/200/300",
      "notes": "Autem cupiditate sit velit consequatur dolorem qui impedit et.",
      "id": 17
    },
    {
      "fridgeId": "barriofridge2",
      "timestamp": "2022-11-10T08:35:17.902Z",
      "condition": "ghost",
      "foodPercentage": 2,
      "photoUrl": "http://placekitten.com/200/300",
      "notes": "Voluptatibus aut quaerat.",
      "id": 18
    },
    {
      "fridgeId": "fridgeatthefort",
      "timestamp": "2022-11-11T00:26:17.534Z",
      "condition": "out of order",
      "foodPercentage": 3,
      "photoUrl": "http://placekitten.com/200/300",
      "notes": "Quia eveniet laudantium quibusdam ad repellat non corrupti neque tempora.",
      "id": 19
    },
    {
      "fridgeId": "communityfridgeatsaintjude",
      "timestamp": "2022-11-11T01:08:19.149Z",
      "condition": "good",
      "foodPercentage": 0,
      "photoUrl": "http://placekitten.com/200/300",
      "notes": "Fugit sed modi quidem eum dicta distinctio consequatur aliquid.",
      "id": 20
    },
    {
      "fridgeId": "astoriafridge",
      "timestamp": "2022-11-10T08:06:35.631Z",
      "condition": "dirty",
      "foodPercentage": 3,
      "photoUrl": "http://placekitten.com/200/300",
      "notes": "Rerum rerum unde eum dolorem eum qui.",
      "id": 21
    },
    {
      "fridgeId": "jacksonheightscommunityfridge",
      "timestamp": "2022-11-10T11:33:03.454Z",
      "condition": "dirty",
      "foodPercentage": 3,
      "photoUrl": "http://placekitten.com/200/300",
      "notes": "Error quaerat reiciendis possimus alias.",
      "id": 22
    },
    {
      "fridgeId": "fenixfridge",
      "timestamp": "2022-11-10T17:42:32.736Z",
      "condition": "out of order",
      "foodPercentage": 3,
      "photoUrl": "http://placekitten.com/200/300",
      "notes": "Eius sequi voluptates tempora.",
      "id": 23
    },
    {
      "fridgeId": "elmhurstcommunityfridge2",
      "timestamp": "2022-11-10T23:28:30.896Z",
      "condition": "out of order",
      "foodPercentage": 3,
      "photoUrl": "http://placekitten.com/200/300",
      "notes": "Et quo sed assumenda dolores.",
      "id": 24
    },
    {
      "fridgeId": "rockawaymutualaidalmedaavenue",
      "timestamp": "2022-11-10T16:26:40.338Z",
      "condition": "dirty",
      "foodPercentage": 0,
      "photoUrl": "http://placekitten.com/200/300",
      "notes": "Eum impedit aliquam voluptas quia modi illo quidem.",
      "id": 25
    },
    {
      "fridgeId": "jamaicacommunityfridge1",
      "timestamp": "2022-11-10T23:29:57.194Z",
      "condition": "dirty",
      "foodPercentage": 3,
      "photoUrl": "http://placekitten.com/200/300",
      "notes": "Ut qui enim possimus deleniti voluptas est.",
      "id": 26
    },
    {
      "fridgeId": "rockawaymutualaidbeach92ndstreet",
      "timestamp": "2022-11-11T03:53:28.870Z",
      "condition": "dirty",
      "foodPercentage": 2,
      "photoUrl": "http://placekitten.com/200/300",
      "notes": "Qui sit debitis nobis delectus tenetur amet dolorem sit.",
      "id": 27
    },
    {
      "fridgeId": "justusfaraithefridge",
      "timestamp": "2022-11-10T09:57:09.108Z",
      "condition": "dirty",
      "foodPercentage": 2,
      "photoUrl": "http://placekitten.com/200/300",
      "notes": "Dicta tenetur quo incidunt.",
      "id": 28
    },
    {
      "fridgeId": "rtucommunityfridge",
      "timestamp": "2022-11-11T04:24:23.297Z",
      "condition": "dirty",
      "foodPercentage": 2,
      "photoUrl": "http://placekitten.com/200/300",
      "notes": "Rerum ut ducimus ut qui.",
      "id": 29
    },
    {
      "fridgeId": "brotherswashdrycommunityfridge",
      "timestamp": "2022-11-10T22:32:38.003Z",
      "condition": "out of order",
      "foodPercentage": 3,
      "photoUrl": "http://placekitten.com/200/300",
      "notes": "Voluptatem et unde repudiandae quas.",
      "id": 30
    },
    {
      "fridgeId": "coronacomunidadfridge",
      "timestamp": "2022-11-11T01:00:25.270Z",
      "condition": "ghost",
      "foodPercentage": 1,
      "photoUrl": "http://placekitten.com/200/300",
      "notes": "Distinctio asperiores tempore repudiandae sint.",
      "id": 31
    },
    {
      "fridgeId": "jamaicacommunityfridge2",
      "timestamp": "2022-11-11T05:37:48.598Z",
      "condition": "dirty",
      "foodPercentage": 2,
      "photoUrl": "http://placekitten.com/200/300",
      "notes": "Et ea rem perferendis facere perferendis nihil beatae recusandae.",
      "id": 32
    },
    {
      "fridgeId": "queensvillagecommunityfridge",
      "timestamp": "2022-11-10T14:15:29.508Z",
      "condition": "dirty",
      "foodPercentage": 0,
      "photoUrl": "http://placekitten.com/200/300",
      "notes": "Et ut accusantium debitis.",
      "id": 33
    },
    {
      "fridgeId": "ravenswoodcommunityfridge",
      "timestamp": "2022-11-10T07:38:37.421Z",
      "condition": "dirty",
      "foodPercentage": 1,
      "photoUrl": "http://placekitten.com/200/300",
      "notes": "Doloremque molestias vel.",
      "id": 34
    },
    {
      "fridgeId": "ozoneparkcommunityfridge",
      "timestamp": "2022-11-10T09:28:28.613Z",
      "condition": "dirty",
      "foodPercentage": 3,
      "photoUrl": "http://placekitten.com/200/300",
      "notes": "Esse eaque quia in illum blanditiis assumenda non.",
      "id": 35
    },
    {
      "fridgeId": "ridgewoodcommunityfridge",
      "timestamp": "2022-11-10T17:02:02.473Z",
      "condition": "good",
      "foodPercentage": 2,
      "photoUrl": "http://placekitten.com/200/300",
      "notes": "Incidunt dolorem quia veniam vel sed id quis.",
      "id": 36
    },
    {
      "fridgeId": "astoriahalalfridge",
      "timestamp": "2022-11-10T09:51:25.003Z",
      "condition": "out of order",
      "foodPercentage": 3,
      "photoUrl": "http://placekitten.com/200/300",
      "notes": "Error iure maiores.",
      "id": 37
    },
    {
      "fridgeId": "saintalbanscommunityfridge",
      "timestamp": "2022-11-10T20:01:58.205Z",
      "condition": "ghost",
      "foodPercentage": 2,
      "photoUrl": "http://placekitten.com/200/300",
      "notes": "Delectus ut consequatur cupiditate adipisci fuga voluptatibus.",
      "id": 38
    },
    {
      "fridgeId": "nexusfridge",
      "timestamp": "2022-11-11T03:12:07.500Z",
      "condition": "out of order",
      "foodPercentage": 1,
      "photoUrl": "http://placekitten.com/200/300",
      "notes": "Tempore nam quia ipsam repellendus in.",
      "id": 39
    },
    {
      "fridgeId": "flushingcommunityfridge",
      "timestamp": "2022-11-10T09:03:58.186Z",
      "condition": "good",
      "foodPercentage": 1,
      "photoUrl": "http://placekitten.com/200/300",
      "notes": "Non necessitatibus excepturi.",
      "id": 40
    },
    {
      "fridgeId": "woodsidecommunityfridge",
      "timestamp": "2022-11-10T22:01:34.490Z",
      "condition": "out of order",
      "foodPercentage": 2,
      "photoUrl": "http://placekitten.com/200/300",
      "notes": "Quia est aut veritatis quis vero tempora.",
      "id": 41
    },
    {
      "fridgeId": "beautystrike",
      "timestamp": "2022-11-10T18:10:25.271Z",
      "condition": "out of order",
      "foodPercentage": 3,
      "photoUrl": "http://placekitten.com/200/300",
      "notes": "Sunt aperiam suscipit eligendi nam modi illo minus.",
      "id": 42
    },
    {
      "fridgeId": "crownheightscommunityfridge",
      "timestamp": "2022-11-10T21:14:56.845Z",
      "condition": "out of order",
      "foodPercentage": 3,
      "photoUrl": "http://placekitten.com/200/300",
      "notes": "Repellat et enim laboriosam impedit et quisquam.",
      "id": 43
    },
    {
      "fridgeId": "downtownbrooklyncommunityfridge",
      "timestamp": "2022-11-11T06:16:20.735Z",
      "condition": "dirty",
      "foodPercentage": 3,
      "photoUrl": "http://placekitten.com/200/300",
      "notes": "Cum sunt recusandae non eligendi optio nisi.",
      "id": 44
    },
    {
      "fridgeId": "friendlyfridgeflatbush",
      "timestamp": "2022-11-10T11:29:02.231Z",
      "condition": "ghost",
      "foodPercentage": 0,
      "photoUrl": "http://placekitten.com/200/300",
      "notes": "Debitis quisquam dolore a reprehenderit nisi explicabo.",
      "id": 45
    },
    {
      "fridgeId": "gowanusfridgenaturebased",
      "timestamp": "2022-11-10T18:25:39.192Z",
      "condition": "dirty",
      "foodPercentage": 0,
      "photoUrl": "http://placekitten.com/200/300",
      "notes": "Qui expedita ea molestiae qui quidem.",
      "id": 46
    },
    {
      "fridgeId": "gowanusfridgepostmarkcafe",
      "timestamp": "2022-11-10T08:23:13.676Z",
      "condition": "out of order",
      "foodPercentage": 2,
      "photoUrl": "http://placekitten.com/200/300",
      "notes": "Dolorum ea alias expedita ut.",
      "id": 47
    },
    {
      "fridgeId": "greenpointfridge",
      "timestamp": "2022-11-10T22:19:07.617Z",
      "condition": "dirty",
      "foodPercentage": 3,
      "photoUrl": "http://placekitten.com/200/300",
      "notes": "Impedit qui ad fugiat similique quas non eos facilis.",
      "id": 48
    },
    {
      "fridgeId": "playgroundcoffeeshop",
      "timestamp": "2022-11-10T10:13:11.777Z",
      "condition": "ghost",
      "foodPercentage": 3,
      "photoUrl": "http://placekitten.com/200/300",
      "notes": "Vitae sed earum error nihil at voluptates est.",
      "id": 49
    },
    {
      "fridgeId": "sincerelytommy",
      "timestamp": "2022-11-11T03:48:02.088Z",
      "condition": "good",
      "foodPercentage": 0,
      "photoUrl": "http://placekitten.com/200/300",
      "notes": "Esse quo natus tenetur totam.",
      "id": 50
    },
    {
      "fridgeId": "livinggallery",
      "timestamp": "2022-11-10T16:31:17.863Z",
      "condition": "ghost",
      "foodPercentage": 0,
      "photoUrl": "http://placekitten.com/200/300",
      "notes": "Minus et amet nesciunt consequatur et illum facilis.",
      "id": 51
    },
    {
      "fridgeId": "universecityfridge",
      "timestamp": "2022-11-11T04:20:32.104Z",
      "condition": "dirty",
      "foodPercentage": 2,
      "photoUrl": "http://placekitten.com/200/300",
      "notes": "Aut cumque omnis.",
      "id": 52
    },
    {
      "fridgeId": "inourheartsvanburen",
      "timestamp": "2022-11-10T18:25:46.493Z",
      "condition": "out of order",
      "foodPercentage": 1,
      "photoUrl": "http://placekitten.com/200/300",
      "notes": "Voluptas alias laudantium natus cumque aut molestias optio.",
      "id": 53
    },
    {
      "fridgeId": "publicassistantscommunityfridge",
      "timestamp": "2022-11-10T07:32:45.664Z",
      "condition": "dirty",
      "foodPercentage": 3,
      "photoUrl": "http://placekitten.com/200/300",
      "notes": "Ea autem veritatis quae vel enim.",
      "id": 54
    },
    {
      "fridgeId": "hashtaglunchbagbkxredhook",
      "timestamp": "2022-11-10T21:25:34.045Z",
      "condition": "good",
      "foodPercentage": 2,
      "photoUrl": "http://placekitten.com/200/300",
      "notes": "Enim qui id tenetur praesentium possimus nesciunt.",
      "id": 55
    },
    {
      "fridgeId": "friendlyfridgeknickerbocker",
      "timestamp": "2022-11-11T00:47:37.585Z",
      "condition": "good",
      "foodPercentage": 1,
      "photoUrl": "http://placekitten.com/200/300",
      "notes": "Amet nisi tempora est rerum voluptatem.",
      "id": 56
    },
    {
      "fridgeId": "hairmetal",
      "timestamp": "2022-11-10T15:20:43.809Z",
      "condition": "dirty",
      "foodPercentage": 0,
      "photoUrl": "http://placekitten.com/200/300",
      "notes": "Quisquam sunt consequatur amet recusandae voluptates omnis.",
      "id": 57
    },
    {
      "fridgeId": "cooperparkfridge",
      "timestamp": "2022-11-10T10:49:03.757Z",
      "condition": "ghost",
      "foodPercentage": 0,
      "photoUrl": "http://placekitten.com/200/300",
      "notes": "Rem perferendis et quis voluptatem rerum blanditiis qui veniam corporis.",
      "id": 58
    },
    {
      "fridgeId": "koinoniajuanbautistachurchcommunityfridge",
      "timestamp": "2022-11-10T21:10:23.453Z",
      "condition": "good",
      "foodPercentage": 0,
      "photoUrl": "http://placekitten.com/200/300",
      "notes": "Rem est hic aut unde ullam.",
      "id": 59
    },
    {
      "fridgeId": "evergreenfreefridge",
      "timestamp": "2022-11-11T03:38:48.717Z",
      "condition": "dirty",
      "foodPercentage": 0,
      "photoUrl": "http://placekitten.com/200/300",
      "notes": "Fugit optio recusandae consequatur.",
      "id": 60
    },
    {
      "fridgeId": "solidarityfridge",
      "timestamp": "2022-11-11T01:14:13.946Z",
      "condition": "dirty",
      "foodPercentage": 2,
      "photoUrl": "http://placekitten.com/200/300",
      "notes": "Qui quisquam reiciendis voluptate tenetur id sunt.",
      "id": 61
    },
    {
      "fridgeId": "bakeshopfridge",
      "timestamp": "2022-11-10T21:07:55.743Z",
      "condition": "dirty",
      "foodPercentage": 3,
      "photoUrl": "http://placekitten.com/200/300",
      "notes": "Aut sapiente quis consequuntur voluptatem placeat corporis dolorem.",
      "id": 62
    },
    {
      "fridgeId": "friendlyfridgeheights",
      "timestamp": "2022-11-10T23:04:05.724Z",
      "condition": "ghost",
      "foodPercentage": 3,
      "photoUrl": "http://placekitten.com/200/300",
      "notes": "Dignissimos delectus sapiente facere.",
      "id": 63
    },
    {
      "fridgeId": "fortgreenecommunityfridge",
      "timestamp": "2022-11-10T23:29:33.512Z",
      "condition": "good",
      "foodPercentage": 1,
      "photoUrl": "http://placekitten.com/200/300",
      "notes": "Eum veritatis nam.",
      "id": 64
    },
    {
      "fridgeId": "bushwickcommunityfridge",
      "timestamp": "2022-11-11T05:13:15.730Z",
      "condition": "good",
      "foodPercentage": 1,
      "photoUrl": "http://placekitten.com/200/300",
      "notes": "Nam vel temporibus.",
      "id": 65
    },
    {
      "fridgeId": "penniespantry",
      "timestamp": "2022-11-10T11:33:53.161Z",
      "condition": "good",
      "foodPercentage": 3,
      "photoUrl": "http://placekitten.com/200/300",
      "notes": "Velit aut id eos.",
      "id": 66
    },
    {
      "fridgeId": "hashtaglunchbagbkxwyckofffarmhousemuseum",
      "timestamp": "2022-11-10T06:29:41.784Z",
      "condition": "out of order",
      "foodPercentage": 2,
      "photoUrl": "http://placekitten.com/200/300",
      "notes": "Cumque quaerat magni velit.",
      "id": 67
    },
    {
      "fridgeId": "laneverademarcy",
      "timestamp": "2022-11-10T16:22:09.308Z",
      "condition": "dirty",
      "foodPercentage": 1,
      "photoUrl": "http://placekitten.com/200/300",
      "notes": "Rerum eius rerum deserunt explicabo voluptatibus odit autem.",
      "id": 68
    },
    {
      "fridgeId": "brooklyncommunityfridgesflatbush",
      "timestamp": "2022-11-11T03:07:03.250Z",
      "condition": "good",
      "foodPercentage": 2,
      "photoUrl": "http://placekitten.com/200/300",
      "notes": "Illo et ipsa nam laborum quia.",
      "id": 69
    },
    {
      "fridgeId": "knowwastelandscommunityfridge",
      "timestamp": "2022-11-10T14:07:23.609Z",
      "condition": "dirty",
      "foodPercentage": 2,
      "photoUrl": "http://placekitten.com/200/300",
      "notes": "Nihil qui culpa magnam neque qui aut.",
      "id": 70
    },
    {
      "fridgeId": "2fish5loavesfridge",
      "timestamp": "2022-11-11T06:09:33.429Z",
      "condition": "good",
      "foodPercentage": 0,
      "photoUrl": "http://placekitten.com/200/300",
      "notes": "Inventore quia consectetur consequatur totam placeat nostrum eligendi.",
      "id": 71
    },
    {
      "fridgeId": "paperboylovegallery",
      "timestamp": "2022-11-10T14:54:23.116Z",
      "condition": "out of order",
      "foodPercentage": 1,
      "photoUrl": "http://placekitten.com/200/300",
      "notes": "Suscipit est officiis ipsa tenetur laboriosam rem sit neque.",
      "id": 72
    },
    {
      "fridgeId": "classoncommunityfridge",
      "timestamp": "2022-11-11T01:20:43.214Z",
      "condition": "dirty",
      "foodPercentage": 1,
      "photoUrl": "http://placekitten.com/200/300",
      "notes": "Atque est sunt dolor vel numquam sit cumque.",
      "id": 73
    },
    {
      "fridgeId": "mixtecascommunityfridge",
      "timestamp": "2022-11-10T09:46:15.750Z",
      "condition": "out of order",
      "foodPercentage": 1,
      "photoUrl": "http://placekitten.com/200/300",
      "notes": "Iste at impedit.",
      "id": 74
    },
    {
      "fridgeId": "copohalalcommunityfridge",
      "timestamp": "2022-11-10T11:48:09.667Z",
      "condition": "good",
      "foodPercentage": 1,
      "photoUrl": "http://placekitten.com/200/300",
      "notes": "Deserunt totam et aliquam.",
      "id": 75
    },
    {
      "fridgeId": "onlunchbreakxgirlsonlynyfridge",
      "timestamp": "2022-11-10T23:23:17.113Z",
      "condition": "good",
      "foodPercentage": 0,
      "photoUrl": "http://placekitten.com/200/300",
      "notes": "Molestias ipsam et aut.",
      "id": 76
    },
    {
      "fridgeId": "successgardencommunity",
      "timestamp": "2022-11-10T11:31:00.800Z",
      "condition": "dirty",
      "foodPercentage": 2,
      "photoUrl": "http://placekitten.com/200/300",
      "notes": "Aut ipsum ea ea dolores vel laboriosam nihil est accusantium.",
      "id": 77
    },
    {
      "fridgeId": "onelovecommunityfridge",
      "timestamp": "2022-11-10T08:32:56.783Z",
      "condition": "dirty",
      "foodPercentage": 1,
      "photoUrl": "http://placekitten.com/200/300",
      "notes": "Pariatur qui optio facilis quisquam dolores.",
      "id": 78
    },
    {
      "fridgeId": "fultonstreetfridge",
      "timestamp": "2022-11-10T14:58:30.007Z",
      "condition": "ghost",
      "foodPercentage": 0,
      "photoUrl": "http://placekitten.com/200/300",
      "notes": "Ut et ut sapiente.",
      "id": 79
    },
    {
      "fridgeId": "bedfordparkcommunityfridge",
      "timestamp": "2022-11-11T03:18:19.811Z",
      "condition": "ghost",
      "foodPercentage": 1,
      "photoUrl": "http://placekitten.com/200/300",
      "notes": "Soluta dicta itaque voluptate eum exercitationem.",
      "id": 80
    },
    {
      "fridgeId": "sybcommunityfridge",
      "timestamp": "2022-11-10T19:14:46.352Z",
      "condition": "dirty",
      "foodPercentage": 1,
      "photoUrl": "http://placekitten.com/200/300",
      "notes": "Dolores aut sunt qui.",
      "id": 81
    },
    {
      "fridgeId": "friendlyfridgebronx",
      "timestamp": "2022-11-10T15:27:34.181Z",
      "condition": "ghost",
      "foodPercentage": 0,
      "photoUrl": "http://placekitten.com/200/300",
      "notes": "Ea nihil nihil et beatae et voluptatem sequi.",
      "id": 82
    },
    {
      "fridgeId": "allertonalliescommunityfridge",
      "timestamp": "2022-11-11T05:01:02.888Z",
      "condition": "dirty",
      "foodPercentage": 0,
      "photoUrl": "http://placekitten.com/200/300",
      "notes": "Et reprehenderit dolor quia tempora eaque laudantium voluptatibus ut.",
      "id": 83
    },
    {
      "fridgeId": "lovingthebronxfridge",
      "timestamp": "2022-11-10T08:18:15.465Z",
      "condition": "ghost",
      "foodPercentage": 1,
      "photoUrl": "http://placekitten.com/200/300",
      "notes": "Fuga sit omnis nostrum voluptatibus a itaque repudiandae sit.",
      "id": 84
    },
    {
      "fridgeId": "motthavenfridge1",
      "timestamp": "2022-11-11T04:21:59.342Z",
      "condition": "dirty",
      "foodPercentage": 1,
      "photoUrl": "http://placekitten.com/200/300",
      "notes": "Modi et repellat explicabo eos.",
      "id": 85
    },
    {
      "fridgeId": "nuestranevera",
      "timestamp": "2022-11-10T06:54:08.156Z",
      "condition": "dirty",
      "foodPercentage": 0,
      "photoUrl": "http://placekitten.com/200/300",
      "notes": "Laborum facilis non sit quia quia.",
      "id": 86
    },
    {
      "fridgeId": "soundviewcommunityfridge",
      "timestamp": "2022-11-10T14:36:42.044Z",
      "condition": "ghost",
      "foodPercentage": 2,
      "photoUrl": "http://placekitten.com/200/300",
      "notes": "Est atque nisi quasi voluptas.",
      "id": 87
    },
    {
      "fridgeId": "motthavenfridge2",
      "timestamp": "2022-11-11T04:19:49.930Z",
      "condition": "ghost",
      "foodPercentage": 3,
      "photoUrl": "http://placekitten.com/200/300",
      "notes": "Omnis iure velit est et quasi.",
      "id": 88
    },
    {
      "fridgeId": "anchorfridge",
      "timestamp": "2022-11-10T11:31:41.962Z",
      "condition": "out of order",
      "foodPercentage": 1,
      "photoUrl": "http://placekitten.com/200/300",
      "notes": "Veniam quo optio.",
      "id": 89
    },
    {
      "fridgeId": "fjmfridge",
      "timestamp": "2022-11-10T09:12:04.238Z",
      "condition": "good",
      "foodPercentage": 2,
      "photoUrl": "http://placekitten.com/200/300",
      "notes": "Deserunt cum aut et et commodi.",
      "id": 90
    },
    {
      "fridgeId": "yonkerscommunityfridge",
      "timestamp": "2022-11-10T22:44:42.450Z",
      "condition": "ghost",
      "foodPercentage": 1,
      "photoUrl": "http://placekitten.com/200/300",
      "notes": "Qui et dolores omnis dolores magni perferendis.",
      "id": 91
    },
    {
      "fridgeId": "neighborhoodfridge",
      "timestamp": "2022-11-10T21:27:41.853Z",
      "condition": "ghost",
      "foodPercentage": 1,
      "photoUrl": "http://placekitten.com/200/300",
      "notes": "Enim sequi molestias dolor.",
      "id": 92
    },
    {
      "fridgeId": "forestavenuecomeunityfridge",
      "timestamp": "2022-11-10T21:12:12.323Z",
      "condition": "good",
      "foodPercentage": 2,
      "photoUrl": "http://placekitten.com/200/300",
      "notes": "Aliquid harum aperiam autem architecto ut tempora architecto iste.",
      "id": 93
    },
    {
      "fridgeId": "kingstoncommunityfridgevanburen",
      "timestamp": "2022-11-10T12:16:00.871Z",
      "condition": "dirty",
      "foodPercentage": 2,
      "photoUrl": "http://placekitten.com/200/300",
      "notes": "Adipisci et voluptate ipsam.",
      "id": 94
    },
    {
      "fridgeId": "buffalocommunityfridge",
      "timestamp": "2022-11-11T06:13:06.495Z",
      "condition": "dirty",
      "foodPercentage": 3,
      "photoUrl": "http://placekitten.com/200/300",
      "notes": "Atque consectetur id sunt reprehenderit.",
      "id": 95
    },
    {
      "fridgeId": "kingstoncommunityfridgeclintonavenue",
      "timestamp": "2022-11-11T03:39:47.767Z",
      "condition": "out of order",
      "foodPercentage": 0,
      "photoUrl": "http://placekitten.com/200/300",
      "notes": "Aliquam inventore et omnis vero perferendis.",
      "id": 96
    },
    {
      "fridgeId": "greenvillecommunityfridge",
      "timestamp": "2022-11-10T14:07:15.867Z",
      "condition": "ghost",
      "foodPercentage": 3,
      "photoUrl": "http://placekitten.com/200/300",
      "notes": "Quia inventore omnis et aliquid voluptas ab quia facere aliquid.",
      "id": 97
    },
    {
      "fridgeId": "unioncitycommunityfridge",
      "timestamp": "2022-11-10T17:00:22.170Z",
      "condition": "ghost",
      "foodPercentage": 2,
      "photoUrl": "http://placekitten.com/200/300",
      "notes": "Voluptatibus sed eveniet.",
      "id": 98
    },
    {
      "fridgeId": "westsidecommunityfridge",
      "timestamp": "2022-11-10T07:41:22.443Z",
      "condition": "ghost",
      "foodPercentage": 0,
      "photoUrl": "http://placekitten.com/200/300",
      "notes": "Est quia reiciendis sint fuga culpa temporibus praesentium ipsam.",
      "id": 99
    },
    {
      "fridgeId": "foodforus",
      "timestamp": "2022-11-10T09:26:13.486Z",
      "condition": "out of order",
      "foodPercentage": 1,
      "photoUrl": "http://placekitten.com/200/300",
      "notes": "Et hic ut eos.",
      "id": 100
    },
    {
      "fridgeId": "jcheightscommunityfridge",
      "timestamp": "2022-11-11T03:34:34.044Z",
      "condition": "ghost",
      "foodPercentage": 1,
      "photoUrl": "http://placekitten.com/200/300",
      "notes": "Deserunt quisquam iusto atque.",
      "id": 101
    },
    {
      "fridgeId": "collectivefocusresourcehub",
      "timestamp": "2022-11-11T00:32:52.317Z",
      "condition": "good",
      "foodPercentage": 2,
      "photoUrl": "http://placekitten.com/200/300",
      "notes": "Nihil ut nam sit.",
      "id": 102
    },
    {
      "fridgeId": "farmtopeoplecommunityfridge",
      "timestamp": "2022-11-10T23:48:52.246Z",
      "condition": "dirty",
      "foodPercentage": 1,
      "photoUrl": "http://placekitten.com/200/300",
      "notes": "Voluptatem eaque dolorum ab nesciunt et esse dolorem incidunt.",
      "id": 103
    },
    {
      "fridgeId": "uticacommunityfridge",
      "timestamp": "2022-11-10T09:26:11.752Z",
      "condition": "dirty",
      "foodPercentage": 3,
      "photoUrl": "http://placekitten.com/200/300",
      "notes": "Perferendis animi cupiditate quidem itaque aliquam velit voluptate.",
      "id": 104
    },
    {
      "fridgeId": "brooklyncommunityfridgescrownheights",
      "timestamp": "2022-11-10T11:07:50.134Z",
      "condition": "dirty",
      "foodPercentage": 3,
      "photoUrl": "http://placekitten.com/200/300",
      "notes": "Consequatur sed officia esse sed dolorem eos placeat velit ut.",
      "id": 105
    },
    {
      "fridgeId": "fridgesfamily",
      "timestamp": "2022-11-10T19:10:11.178Z",
      "condition": "out of order",
      "foodPercentage": 0,
      "photoUrl": "http://placekitten.com/200/300",
      "notes": "Sed ea qui illo voluptates.",
      "id": 106
    },
    {
      "fridgeId": "brooklynheightscommunityfridge",
      "timestamp": "2022-11-10T10:32:10.325Z",
      "condition": "out of order",
      "foodPercentage": 1,
      "photoUrl": "http://placekitten.com/200/300",
      "notes": "Sequi illo consectetur error voluptas sit architecto minima assumenda assumenda.",
      "id": 107
    },
    {
      "fridgeId": "kwtcommunityfridge",
      "timestamp": "2022-11-10T08:32:43.576Z",
      "condition": "ghost",
      "foodPercentage": 0,
      "photoUrl": "http://placekitten.com/200/300",
      "notes": "Sed sit hic.",
      "id": 108
    },
    {
      "fridgeId": "leonwrightlittlefreepantry",
      "timestamp": "2022-11-11T03:25:36.160Z",
      "condition": "not at location",
      "foodPercentage": 1,
      "photoUrl": "http://placekitten.com/200/300",
      "notes": "Nisi libero et quia itaque minima voluptatibus ipsam.",
      "id": 109
    },
    {
      "fridgeId": "eileensfreebodega",
      "timestamp": "2022-11-10T12:11:39.245Z",
      "condition": "ghost",
      "foodPercentage": 0,
      "photoUrl": "http://placekitten.com/200/300",
      "notes": "Corporis est ducimus quo quas tempore et eum.",
      "id": 110
    },
    {
      "fridgeId": "saintnickfridge",
      "timestamp": "2022-11-10T12:09:28.108Z",
      "condition": "dirty",
      "foodPercentage": 2,
      "photoUrl": "http://placekitten.com/200/300",
      "notes": "Recusandae assumenda eveniet reprehenderit explicabo sapiente reprehenderit consectetur sed blanditiis.",
      "id": 111
    },
    {
      "fridgeId": "motthavencommunityfridge",
      "timestamp": "2022-11-10T22:42:55.100Z",
      "condition": "dirty",
      "foodPercentage": 0,
      "photoUrl": "http://placekitten.com/200/300",
      "notes": "Vel accusamus possimus ipsam quisquam.",
      "id": 112
    },
    {
      "fridgeId": "inourheartswestfarms",
      "timestamp": "2022-11-10T18:22:54.085Z",
      "condition": "good",
      "foodPercentage": 0,
      "photoUrl": "http://placekitten.com/200/300",
      "notes": "Earum facilis fugit maiores.",
      "id": 113
    },
    {
      "fridgeId": "fridgeportjamesstreet",
      "timestamp": "2022-11-10T09:20:52.787Z",
      "condition": "dirty",
      "foodPercentage": 1,
      "photoUrl": "http://placekitten.com/200/300",
      "notes": "Recusandae amet et in ut.",
      "id": 114
    },
    {
      "fridgeId": "essexmarketplantbasedcommunityfridge",
      "timestamp": "2022-11-10T11:45:07.117Z",
      "condition": "dirty",
      "foodPercentage": 0,
      "photoUrl": "http://placekitten.com/200/300",
      "notes": "Itaque eveniet reiciendis est maxime itaque qui pariatur sequi.",
      "id": 115
    },
    {
      "fridgeId": "fridgehaven",
      "timestamp": "2022-11-10T22:57:18.306Z",
      "condition": "dirty",
      "foodPercentage": 0,
      "photoUrl": "http://placekitten.com/200/300",
      "notes": "Vero dolores cupiditate vero et quisquam laborum.",
      "id": 116
    },
    {
      "fridgeId": "wedoittoofridge",
      "timestamp": "2022-11-11T01:36:31.654Z",
      "condition": "good",
      "foodPercentage": 2,
      "photoUrl": "http://placekitten.com/200/300",
      "notes": "Velit sint nesciunt suscipit.",
      "id": 117
    },
    {
      "fridgeId": "eastelmhurstfridge",
      "timestamp": "2022-11-11T05:02:29.704Z",
      "condition": "good",
      "foodPercentage": 1,
      "photoUrl": "http://placekitten.com/200/300",
      "notes": "Et exercitationem debitis illo distinctio esse atque quia.",
      "id": 118
    },
    {
      "fridgeId": "hashtaglunchbagbkxfortdefiance",
      "timestamp": "2022-11-10T20:08:18.996Z",
      "condition": "ghost",
      "foodPercentage": 0,
      "photoUrl": "http://placekitten.com/200/300",
      "notes": "Eius tenetur voluptatum.",
      "id": 119
    },
    {
      "fridgeId": "nychadyckmanhouses",
      "timestamp": "2022-11-10T06:53:49.867Z",
      "condition": "good",
      "foodPercentage": 0,
      "photoUrl": "http://placekitten.com/200/300",
      "notes": "Nostrum aut omnis corrupti optio autem mollitia soluta.",
      "id": 120
    },
    {
      "fridgeId": "transmitterparkfridge",
      "timestamp": "2022-11-10T13:52:12.773Z",
      "condition": "out of order",
      "foodPercentage": 3,
      "photoUrl": "http://placekitten.com/200/300",
      "notes": "Rerum quae optio quas sit consequuntur ipsam illo minima.",
      "id": 121
    },
    {
      "fridgeId": "portchesterfriendlyfridge",
      "timestamp": "2022-11-10T13:39:04.589Z",
      "condition": "good",
      "foodPercentage": 3,
      "photoUrl": "http://placekitten.com/200/300",
      "notes": "Est doloribus voluptatem molestiae maiores beatae quidem.",
      "id": 122
    },
    {
      "fridgeId": "vinnyspetstorecommunityfridge",
      "timestamp": "2022-11-10T23:07:55.438Z",
      "condition": "dirty",
      "foodPercentage": 1,
      "photoUrl": "http://placekitten.com/200/300",
      "notes": "Exercitationem occaecati corporis in in laborum nihil necessitatibus.",
      "id": 123
    },
    {
      "fridgeId": "loisaidacommunityfridge",
      "timestamp": "2022-11-11T03:23:58.183Z",
      "condition": "out of order",
      "foodPercentage": 3,
      "photoUrl": "http://placekitten.com/200/300",
      "notes": "Totam inventore est.",
      "id": 124
    },
    {
      "fridgeId": "hellskitchencommunitycupboard",
      "timestamp": "2022-11-11T02:16:46.909Z",
      "condition": "ghost",
      "foodPercentage": 1,
      "photoUrl": "http://placekitten.com/200/300",
      "notes": "Voluptas autem dolor velit optio incidunt aut ipsum voluptatem nihil.",
      "id": 125
    },
    {
      "fridgeId": "northbrooklynfridgesmusichall",
      "timestamp": "2022-11-11T03:41:01.200Z",
      "condition": "ghost",
      "foodPercentage": 2,
      "photoUrl": "http://placekitten.com/200/300",
      "notes": "Error quo harum voluptas sequi culpa voluptatem doloribus perspiciatis.",
      "id": 126
    },
    {
      "fridgeId": "viequessolidaritylibrary",
      "timestamp": "2022-11-10T15:09:06.092Z",
      "condition": "ghost",
      "foodPercentage": 1,
      "photoUrl": "http://placekitten.com/200/300",
      "notes": "Odio qui laborum officia eligendi numquam libero mollitia ut.",
      "id": 127
    },
    {
      "fridgeId": "flatbushcommunityfridge",
      "timestamp": "2022-11-10T21:44:06.740Z",
      "condition": "ghost",
      "foodPercentage": 2,
      "photoUrl": "http://placekitten.com/200/300",
      "notes": "Est qui in.",
      "id": 128
    },
    {
      "fridgeId": "hectorrafaelperez",
      "timestamp": "2022-11-11T02:24:55.209Z",
      "condition": "ghost",
      "foodPercentage": 2,
      "photoUrl": "http://placekitten.com/200/300",
      "notes": "Voluptas enim a illo consequuntur qui sed.",
      "id": 129
    },
    {
      "fridgeId": "clementsmileycommunityfridge",
      "timestamp": "2022-11-11T03:22:48.020Z",
      "condition": "dirty",
      "foodPercentage": 0,
      "photoUrl": "http://placekitten.com/200/300",
      "notes": "Voluptatibus provident ut eos unde aspernatur est rerum saepe.",
      "id": 130
    },
    {
      "fridgeId": "pincommunityfridge",
      "timestamp": "2022-11-10T06:28:52.665Z",
      "condition": "ghost",
      "foodPercentage": 1,
      "photoUrl": "http://placekitten.com/200/300",
      "notes": "Earum numquam commodi hic molestiae vel fugiat quaerat sapiente est.",
      "id": 131
    },
    {
      "fridgeId": "chinatowncommunityfridgepantry",
      "timestamp": "2022-11-10T20:15:23.808Z",
      "condition": "good",
      "foodPercentage": 1,
      "photoUrl": "http://placekitten.com/200/300",
      "notes": "Consequuntur qui sequi aut error.",
      "id": 132
    },
    {
      "fridgeId": "maspethfridge",
      "timestamp": "2022-11-11T01:16:22.701Z",
      "condition": "out of order",
      "foodPercentage": 0,
      "photoUrl": "http://placekitten.com/200/300",
      "notes": "Officiis optio est saepe hic velit.",
      "id": 133
    },
    {
      "fridgeId": "fridgeetc",
      "timestamp": "2022-11-10T13:45:05.870Z",
      "condition": "dirty",
      "foodPercentage": 1,
      "photoUrl": "http://placekitten.com/200/300",
      "notes": "Provident porro consectetur ab cumque.",
      "id": 134
    },
    {
      "fridgeId": "covunityfridge",
      "timestamp": "2022-11-11T06:17:47.581Z",
      "condition": "out of order",
      "foodPercentage": 3,
      "photoUrl": "http://placekitten.com/200/300",
      "notes": "Iusto delectus alias voluptatem sint illum.",
      "id": 135
    },
    {
      "fridgeId": "northbrooklynfridgesleonardlibrary",
      "timestamp": "2022-11-10T10:28:29.301Z",
      "condition": "dirty",
      "foodPercentage": 3,
      "photoUrl": "http://placekitten.com/200/300",
      "notes": "Ut tempore dolor eos magni amet quia explicabo.",
      "id": 136
    }
  ],
  "contact": [],
  "photo": []
}
