{
  "fridges": [
    {
      "instagram": "https://www.instagram.com/coronacomunidadfridge",
      "name": "Corona Comunidad Fridge",
      "notes": "at Tortilleria Nixtamal",
      "location": {
        "city": "New York",
        "geoLat": "40.7459352",
        "geoLng": "-73.85931075",
        "state": "NY",
        "street": "104-05 47th Ave",
        "zip": "11368"
      }
    },
    {
      "instagram": "https://www.instagram.com/Payousa1",
      "name": "PAYO community fridge",
      "notes": "coner of Foster ave",
      "location": {
        "city": "New York",
        "geoLat": "40.632187",
        "geoLng": "-73.9665339",
        "state": "NY",
        "street": "1045 Coney Island Avenue",
        "zip": "11230"
      }
    },
    {
      "instagram": "https://www.instagram.com/collectivefocushub",
      "name": "Collective Focus Resource Hub",
      "notes": "",
      "location": {
        "city": "New York",
        "geoLat": "40.695189",
        "geoLng": "-73.932345",
        "state": "NY",
        "street": "1046 Broadway",
        "zip": "11221"
      }
    },
    {
      "instagram": "https://www.instagram.com/jamaicacommunityfridge",
      "name": "Jamaica Community Fridge",
      "notes": "",
      "location": {
        "city": "New York",
        "geoLat": "40.6930826",
        "geoLng": "-73.799676",
        "state": "NY",
        "street": "107-58 Sutphin Boulevard",
        "zip": "11435"
      }
    },
    {
      "instagram": "https://www.instagram.com/Copousa",
      "name": "Halal Community fridge",
      "notes": "",
      "location": {
        "city": "New York",
        "geoLat": "40.6313315",
        "geoLng": "-73.96621703",
        "state": "NY",
        "street": "1077 Coney Island Avenue",
        "zip": "11230"
      }
    },
    {
      "instagram": "https://www.instagram.com/the_living_gallery",
      "name": "The Living Gallery Fridge",
      "notes": "",
      "location": {
        "city": "New York",
        "geoLat": "40.694207",
        "geoLng": "-73.930599",
        "state": "NY",
        "street": "1094 Broadway",
        "zip": "11221"
      }
    },
    {
      "instagram": "",
      "name": "Saint Jude Church",
      "notes": "",
      "location": {
        "city": "New York",
        "geoLat": "40.7127281",
        "geoLng": "-74.0060152",
        "state": "NY",
        "street": "10th Ave & W 205th Street",
        "zip": "10034"
      }
    },
    {
      "instagram": "https://www.instagram.com/farmtopeople",
      "name": "Farm to People Community Fridge",
      "notes": "",
      "location": {
        "city": "New York",
        "geoLat": "40.7051413",
        "geoLng": "-73.927062",
        "state": "NY",
        "street": "1100 Flushing Avenue",
        "zip": "11237"
      }
    },
    {
      "instagram": "https://www.instagram.com/flatbushfriendlyfridge",
      "name": "Flatbush Friendly Fridge",
      "notes": "",
      "location": {
        "city": "New York",
        "geoLat": "40.66059",
        "geoLng": "-73.950819",
        "state": "NY",
        "street": "1110 Nostrand Avenue",
        "zip": "11225"
      }
    },
    {
      "instagram": "https://www.instagram.com/playgroundcoffeeshop",
      "name": "Playground Coffee Fridge",
      "notes": "",
      "location": {
        "city": "New York",
        "geoLat": "40.6866024",
        "geoLng": "-73.95480866",
        "state": "NY",
        "street": "1114 Bedford Avenue",
        "zip": "11216"
      }
    },
    {
      "instagram": "https://www.instagram.com/uticacommunityfridge",
      "name": "Utica community fridge",
      "notes": "",
      "location": {
        "city": "Utica",
        "geoLat": "43.0962845",
        "geoLng": "-75.2346536",
        "state": "NY",
        "street": "112 South Street",
        "zip": "13501"
      }
    },
    {
      "instagram": "https://www.instagram.com/Bkfridges",
      "name": "BK Community Fridge",
      "notes": "",
      "location": {
        "city": "New York",
        "geoLat": "40.66902",
        "geoLng": "-73.953653",
        "state": "NY",
        "street": "1148 Union Street",
        "zip": "11225"
      }
    },
    {
      "instagram": "https://www.instagram.com/fridgesandfamily",
      "name": "Fridges & Family",
      "notes": "",
      "location": {
        "city": "Philadelphia",
        "geoLat": "39.9350312",
        "geoLng": "-75.158604",
        "state": "PA",
        "street": "1149 South 9th Street",
        "zip": "19147"
      }
    },
    {
      "instagram": "https://www.instagram.com/ravenswoodfridge",
      "name": "Ravenswood Community Fridge",
      "notes": "",
      "location": {
        "city": "New York",
        "geoLat": "40.7605726",
        "geoLng": "-73.9388595",
        "state": "NY",
        "street": "12-14 36th Avenue",
        "zip": "11106"
      }
    },
    {
      "instagram": "https://www.instagram.com/brooklynheightscommunityfridge",
      "name": "Brooklyn Heights Community Fridge",
      "notes": "",
      "location": {
        "city": "New York",
        "geoLat": "40.696995",
        "geoLng": "-73.993431",
        "state": "NY",
        "street": "124 Henry Street",
        "zip": "11201"
      }
    },
    {
      "instagram": "https://www.instagram.com/paperboy.lovegallery",
      "name": "Paperboy Love Gallery",
      "notes": "",
      "location": {
        "city": "New York",
        "geoLat": "40.697759",
        "geoLng": "-73.927282",
        "state": "NY",
        "street": "1254 Myrtle Avenue",
        "zip": "11221"
      }
    },
    {
      "instagram": "https://www.instagram.com/ozoneparkcommunityfridge",
      "name": "Ozone Park Richmond Hill Community Fridge",
      "notes": "",
      "location": {
        "city": "New York",
        "geoLat": "40.6905488",
        "geoLng": "-73.81374304",
        "state": "NY",
        "street": "132-06 Liberty Avenue",
        "zip": "11419"
      }
    },
    {
      "instagram": "https://www.instagram.com/iohnyc",
      "name": "NYCs First Fridge",
      "notes": "",
      "location": {
        "city": "New York",
        "geoLat": "40.69053555",
        "geoLng": "-73.94067625",
        "state": "NY",
        "street": "133 Van Buren Street",
        "zip": "11221"
      }
    },
    {
      "instagram": "https://www.instagram.com/flushingcommunityfridge",
      "name": "Flushing Community Fridge",
      "notes": "",
      "location": {
        "city": "Flushing",
        "geoLat": "40.7453798",
        "geoLng": "-73.9054145",
        "state": "NY",
        "street": "136-23 Sanford Avenue",
        "zip": "11355"
      }
    },
    {
      "instagram": "https://www.instagram.com/kwtfridge",
      "name": "KWT Community Fridge",
      "notes": "",
      "location": {
        "city": "New York",
        "geoLat": "40.7230038",
        "geoLng": "-73.98635716",
        "state": "NY",
        "street": "137 East 2nd Street",
        "zip": "10009"
      }
    },
    {
      "instagram": "https://www.instagram.com/hullstreetblockassociation",
      "name": "Leon Wright Little Free Pantry",
      "notes": "",
      "location": {
        "city": "New York",
        "geoLat": "40.67943535",
        "geoLng": "-73.91009056",
        "state": "NY",
        "street": "144 Hull Street",
        "zip": "11233"
      }
    },
    {
      "instagram": "https://www.instagram.com/eileensfreebodega_",
      "name": "Eileens Free Bodega",
      "notes": "",
      "location": {
        "city": "Keyport",
        "geoLat": "40.43726",
        "geoLng": "-74.192854",
        "state": "NJ",
        "street": "155 Third Street",
        "zip": "07735"
      }
    },
    {
      "instagram": "https://www.instagram.com/thebushwickfridge",
      "name": "Bushwick Community Fridge",
      "notes": "",
      "location": {
        "city": "New York",
        "geoLat": "40.684963",
        "geoLng": "-73.913824",
        "state": "NY",
        "street": "1643 Broadway",
        "zip": "11207"
      }
    },
    {
      "instagram": "https://www.instagram.com/RockawayMutualAid",
      "name": "Rockaway Fridge 2",
      "notes": "",
      "location": {
        "city": "New York",
        "geoLat": "40.5856837",
        "geoLng": "-73.81458875",
        "state": "NY",
        "street": "166 Beach 92nd Street",
        "zip": "11693"
      }
    },
    {
      "instagram": "https://www.instagram.com/greenpointfridge",
      "name": "Greenpoint Fridge",
      "notes": "",
      "location": {
        "city": "New York",
        "geoLat": "40.722814",
        "geoLng": "-73.95405",
        "state": "NY",
        "street": "17 Nassau Ave.",
        "zip": "11222"
      }
    },
    {
      "instagram": "https://www.instagram.com/stalbanscommunityfridge",
      "name": "St. Albans Community Fridge",
      "notes": "172-17 Linden Boulevard",
      "location": {
        "city": "New York",
        "geoLat": "40.6924179",
        "geoLng": "-73.7776768",
        "state": "NY",
        "street": "172-17 Linden Boulevard",
        "zip": "11433"
      }
    },
    {
      "instagram": "https://www.instagram.com/stnickfridge",
      "name": "St. Nick Fridge",
      "notes": "",
      "location": {
        "city": "New York",
        "geoLat": "40.704161",
        "geoLng": "-73.916206",
        "state": "NY",
        "street": "176 St Nicholas Avenue",
        "zip": "11237"
      }
    },
    {
      "instagram": "https://www.instagram.com/lanevera183",
      "name": "La Nevera 183",
      "notes": "New location: Washington Heights CORNER Project at 500 W. 180th St. Currently i doors in their programming space, will move a few months from now (11/4/21)",
      "location": {
        "city": "New York",
        "geoLat": "40.7085499",
        "geoLng": "-73.7806031",
        "state": "NY",
        "street": "180th Street",
        "zip": "11433"
      }
    },
    {
      "instagram": "https://www.instagram.com/motthavenfridge",
      "name": "Mott Haven Community Fridge",
      "notes": "",
      "location": {
        "city": "The Bronx",
        "geoLat": "40.7127281",
        "geoLng": "-74.0060152",
        "state": "NY",
        "street": "185 E 85th Street",
        "zip": "10028"
      }
    },
    {
      "instagram": "https://www.instagram.com/thefriendlyfridge",
      "name": "Bushwick Friendly Fridge",
      "notes": "",
      "location": {
        "city": "New York",
        "geoLat": "40.703637",
        "geoLng": "-73.9272235",
        "state": "NY",
        "street": "190 Knickerbocker Avenue",
        "zip": "11237"
      }
    },
    {
      "instagram": "https://www.instagram.com/qvcommunityfridge",
      "name": "Queens Village Community Fridge",
      "notes": "",
      "location": {
        "city": "Hollis",
        "geoLat": "40.7102283",
        "geoLng": "-73.7713104",
        "state": "NY",
        "street": "190-05 Hollis Ave",
        "zip": "11423"
      }
    },
    {
      "instagram": "",
      "name": "In Our Hearts",
      "notes": "",
      "location": {
        "city": "New York",
        "geoLat": "40.83904002",
        "geoLng": "-73.88085618",
        "state": "NY",
        "street": "1939 West Farms Road",
        "zip": "10460"
      }
    },
    {
      "instagram": "https://www.instagram.com/eastvillageneighbors",
      "name": "East Village Community Fridge",
      "notes": "",
      "location": {
        "city": "New York",
        "geoLat": "40.732658",
        "geoLng": "-73.979824",
        "state": "NY",
        "street": "197 First Avenue",
        "zip": "10003"
      }
    },
    {
      "instagram": "https://www.instagram.com/thepeoplespeoplesfridge",
      "name": "The Peoples Peoples Fridge",
      "notes": "",
      "location": {
        "city": "New York",
        "geoLat": "40.707877",
        "geoLng": "-73.922472",
        "state": "NY",
        "street": "2 St Nicholas Avenue",
        "zip": "11237"
      }
    },
    {
      "instagram": "https://www.instagram.com/theharlemcommunityfridge",
      "name": "The Harlem Community Fridge",
      "notes": "",
      "location": {
        "city": "New York",
        "geoLat": "40.777048",
        "geoLng": "-73.967596",
        "state": "NY",
        "street": "209 W 116th St",
        "zip": "10026"
      }
    },
    {
      "instagram": "https://www.instagram.com/peoplesfridgewordup",
      "name": "The Peoples Peoples Fridge - Word Up",
      "notes": "",
      "location": {
        "city": "New York",
        "geoLat": "40.8376548",
        "geoLng": "-73.9382991",
        "state": "NY",
        "street": "2113 Amsterdam Ave",
        "zip": "10032"
      }
    },
    {
      "instagram": "https://www.instagram.com/westsidecommunityfridge",
      "name": "Westside Community Fridge",
      "notes": "",
      "location": {
        "city": "Jersey City",
        "geoLat": "40.7217535",
        "geoLng": "-74.08155782",
        "state": "NJ",
        "street": "214 Delaware Avenue",
        "zip": "07304"
      }
    },
    {
      "instagram": "https://www.instagram.com/fridgeport",
      "name": "Fridgeport James St location",
      "notes": "",
      "location": {
        "city": "Bridgeport",
        "geoLat": "41.1821854",
        "geoLng": "-73.1987195",
        "state": "CT",
        "street": "219 James Street",
        "zip": "06604"
      }
    },
    {
      "instagram": "",
      "name": "Essex Market Plant-Based Community Fridge",
      "notes": "",
      "location": {
        "city": "New York",
        "geoLat": "40.71784438",
        "geoLng": "-73.9890201",
        "state": "NY",
        "street": "220 Broome Street",
        "zip": "10002"
      }
    },
    {
      "instagram": "https://www.instagram.com/universecitynyc",
      "name": "University City NYC",
      "notes": "",
      "location": {
        "city": "New York",
        "geoLat": "40.67219754",
        "geoLng": "-73.90209488",
        "state": "NY",
        "street": "234 Glenmore Avenue",
        "zip": "11207"
      }
    },
    {
      "instagram": "https://www.instagram.com/anchorfridge",
      "name": "Anchor Fridge",
      "notes": "",
      "location": {
        "city": "New York",
        "geoLat": "40.8449865",
        "geoLng": "-73.7859206",
        "state": "NY",
        "street": "239 City Island Avenue",
        "zip": "10464"
      }
    },
    {
      "instagram": "https://www.instagram.com/Fridgehaven",
      "name": "Fridge Haven",
      "notes": "",
      "location": {
        "city": "New Haven",
        "geoLat": "40.7127281",
        "geoLng": "-74.0060152",
        "state": "CT",
        "street": "242 Dixwell Avenue",
        "zip": "06511"
      }
    },
    {
      "instagram": "https://www.instagram.com/Girlsonlyny",
      "name": "Coney island Fridge",
      "notes": "",
      "location": {
        "city": "New York",
        "geoLat": "40.57602215",
        "geoLng": "-73.99194985",
        "state": "NY",
        "street": "2423 Mermaid Avenue",
        "zip": "11224"
      }
    },
    {
      "instagram": "",
      "name": "Mixteca",
      "notes": "",
      "location": {
        "city": "New York",
        "geoLat": "40.6601147",
        "geoLng": "-73.9941986",
        "state": "NY",
        "street": "245 23rd Street",
        "zip": "11215"
      }
    },
    {
      "instagram": "",
      "name": "Steinway Halal Fridge",
      "notes": "",
      "location": {
        "city": "New York",
        "geoLat": "40.7659946",
        "geoLng": "-73.91298101",
        "state": "NY",
        "street": "25-75 Steinway Street",
        "zip": "11103"
      }
    },
    {
      "instagram": "https://www.instagram.com/the155streetfridge",
      "name": "The 155 Street Fridge",
      "notes": "",
      "location": {
        "city": "New York",
        "geoLat": "40.8294203",
        "geoLng": "-73.9386208",
        "state": "NY",
        "street": "250 Bradhurst Avenue",
        "zip": "10039"
      }
    },
    {
      "instagram": "https://www.instagram.com/allertonalliesfridge",
      "name": "Allerton Allies Fridge",
      "notes": "",
      "location": {
        "city": "New York",
        "geoLat": "40.86404025",
        "geoLng": "-73.86476305",
        "state": "NY",
        "street": "2527 Boston Road",
        "zip": "10467"
      }
    },
    {
      "instagram": "https://www.instagram.com/Wefridgetoo",
      "name": "We Do It Too Fridge",
      "notes": "",
      "location": {
        "city": "New York",
        "geoLat": "40.8268962",
        "geoLng": "-73.93928844",
        "state": "NY",
        "street": "2837 Frederick Douglass Boulevard",
        "zip": "10039"
      }
    },
    {
      "instagram": "https://www.instagram.com/motthavenfridge",
      "name": "Mott Haven Fridge 2",
      "notes": "",
      "location": {
        "city": "New York",
        "geoLat": "40.8090972",
        "geoLng": "-73.9185003",
        "state": "NY",
        "street": "297 Brook Avenue",
        "zip": "10454"
      }
    },
    {
      "instagram": "",
      "name": "Solidarity Fridge",
      "notes": "",
      "location": {
        "city": "New York",
        "geoLat": "40.6429095",
        "geoLng": "-73.96358102",
        "state": "NY",
        "street": "315 East 16th Street",
        "zip": "11226"
      }
    },
    {
      "instagram": "",
      "name": "East Elmhurst Fridge",
      "notes": "",
      "location": {
        "city": "New York",
        "geoLat": "40.75764635",
        "geoLng": "-73.87386343",
        "state": "NY",
        "street": "32-37 Junction Boulevard",
        "zip": "11369"
      }
    },
    {
      "instagram": "https://www.instagram.com/thegowanusfridge",
      "name": "Gowanus Postmark Fridge",
      "notes": "",
      "location": {
        "city": "New York",
        "geoLat": "40.671069",
        "geoLng": "-73.9851953",
        "state": "NY",
        "street": "326 6th street",
        "zip": "11215"
      }
    },
    {
      "instagram": "https://www.instagram.com/thebarriofridge",
      "name": "The Barrio Fridge",
      "notes": "",
      "location": {
        "city": "New York",
        "geoLat": "40.7911604",
        "geoLng": "-73.9393979",
        "state": "NY",
        "street": "339 East 108th Street",
        "zip": "10029"
      }
    },
    {
      "instagram": "https://www.instagram.com/sincerelytommy_",
      "name": "Sincerely Tommy Fridge",
      "notes": "",
      "location": {
        "city": "New York",
        "geoLat": "40.6860681",
        "geoLng": "-73.9443146",
        "state": "NY",
        "street": "343 Tompkins Avenue",
        "zip": "11221"
      }
    },
    {
      "instagram": "https://www.instagram.com/hashtaglunchbagbk",
      "name": "HashtagLunchbag BK x Fort Defiance",
      "notes": "",
      "location": {
        "city": "New York",
        "geoLat": "40.67710495",
        "geoLng": "-74.01282124",
        "state": "NY",
        "street": "347 Van Brunt Street",
        "zip": "11231"
      }
    },
    {
      "instagram": "https://www.instagram.com/fgcommunityfridge",
      "name": "Fort Greene Community Fridge",
      "notes": "",
      "location": {
        "city": "New York",
        "geoLat": "40.693319",
        "geoLng": "-73.971718",
        "state": "NY",
        "street": "357 Myrtle Avenue",
        "zip": "11205"
      }
    },
    {
      "instagram": "https://www.instagram.com/hashtaglunchbagbk",
      "name": "Hashtag Lunchbag BK Community Fridge",
      "notes": "",
      "location": {
        "city": "New York",
        "geoLat": "40.6794847",
        "geoLng": "-74.00515945",
        "state": "NY",
        "street": "367 Columbia Street",
        "zip": "11231"
      }
    },
    {
      "instagram": "",
      "name": "NYCHA Dyckman Houses",
      "notes": "",
      "location": {
        "city": "New York",
        "geoLat": "40.86098",
        "geoLng": "-73.9219493",
        "state": "NY",
        "street": "3758 10th Avenue",
        "zip": "10034"
      }
    },
    {
      "instagram": "",
      "name": "Transmitter Park Fridge",
      "notes": "",
      "location": {
        "city": "New York",
        "geoLat": "40.7382092",
        "geoLng": "-73.9278923",
        "state": "NY",
        "street": "38-04 Greenpoint Avenue",
        "zip": "11101"
      }
    },
    {
      "instagram": "https://www.instagram.com/nexusfridge",
      "name": "Nexus 29th Street Fridge",
      "notes": "",
      "location": {
        "city": "New York",
        "geoLat": "40.7527012",
        "geoLng": "-73.9350775",
        "state": "NY",
        "street": "39-31 29th Street",
        "zip": "11101"
      }
    },
    {
      "instagram": "https://www.instagram.com/jcheightscommunityfridge",
      "name": "JC Heights Community Fridge",
      "notes": "",
      "location": {
        "city": "Jersey City",
        "geoLat": "40.75159",
        "geoLng": "-74.041237",
        "state": "NJ",
        "street": "390 Webster Avenue",
        "zip": "07307"
      }
    },
    {
      "instagram": "https://www.instagram.com/thepcfriendlyfridge/?hl=en",
      "name": "Port Chester Friendly Fridge",
      "notes": "",
      "location": {
        "city": "Port Chester",
        "geoLat": "40.816557",
        "geoLng": "-73.916764",
        "state": "NY",
        "street": "400 Westchester Avenue",
        "zip": "10573"
      }
    },
    {
      "instagram": "https://www.instagram.com/thegowanusfridge",
      "name": "Gowanus Happy Fridge",
      "notes": "",
      "location": {
        "city": "New York",
        "geoLat": "40.6770146",
        "geoLng": "-73.9915541",
        "state": "NY",
        "street": "408 Hoyt Street",
        "zip": "11231"
      }
    },
    {
      "instagram": "https://www.instagram.com/Onelovecommunityfridge",
      "name": "One Love Community Fridge",
      "notes": "",
      "location": {
        "city": "New York",
        "geoLat": "40.693043",
        "geoLng": "-73.968396",
        "state": "NY",
        "street": "432 Myrtle Avenue",
        "zip": "11205"
      }
    },
    {
      "instagram": "https://www.instagram.com/Vinnyspetshop",
      "name": "Vinny's Pet Store Community Fridge",
      "notes": "",
      "location": {
        "city": "New York",
        "geoLat": "40.63411595",
        "geoLng": "-74.02196571",
        "state": "NY",
        "street": "451 Bay Ridge Avenue",
        "zip": "11220"
      }
    },
    {
      "instagram": "https://www.instagram.com/Theheightsfriendlyfridge",
      "name": "The Heights Friendly Fridge",
      "notes": "",
      "location": {
        "city": "New York",
        "geoLat": "40.6723208",
        "geoLng": "-73.9608401",
        "state": "NY",
        "street": "461 Munchiez",
        "zip": "11238"
      }
    },
    {
      "instagram": "https://www.instagram.com/theuptownfridge",
      "name": "The Uptown Fridge",
      "notes": "",
      "location": {
        "city": "New York",
        "geoLat": "40.8633074",
        "geoLng": "-73.9297881",
        "state": "NY",
        "street": "4672 Broadway",
        "zip": "10040"
      }
    },
    {
      "instagram": "https://www.instagram.com/flatbushfriendlyfridge",
      "name": "Flatbush Friendly Fridge",
      "notes": "",
      "location": {
        "city": "New York",
        "geoLat": "40.6600527",
        "geoLng": "-73.9532648",
        "state": "NY",
        "street": "499 Rogers Avenue",
        "zip": "11225"
      }
    },
    {
      "instagram": "https://www.instagram.com/woodsidefridge",
      "name": "Woodside Community Fridge",
      "notes": "",
      "location": {
        "city": "New York",
        "geoLat": "40.7572375",
        "geoLng": "-73.9080539",
        "state": "NY",
        "street": "50-27 31st Avenue",
        "zip": "11377"
      }
    },
    {
      "instagram": "https://www.instagram.com/fridgeonw126th",
      "name": "West Harlem Community Fridge",
      "notes": "",
      "location": {
        "city": "New York",
        "geoLat": "40.814841",
        "geoLng": "-73.956152",
        "state": "NY",
        "street": "521 West 126 Street",
        "zip": "10027"
      }
    },
    {
      "instagram": "https://www.instagram.com/Penniespantrybk",
      "name": "Pennies Pantry",
      "notes": "",
      "location": {
        "city": "New York",
        "geoLat": "40.6969936",
        "geoLng": "-73.9493842",
        "state": "NY",
        "street": "535 Marcy Avenue",
        "zip": "11206"
      }
    },
    {
      "instagram": "https://www.instagram.com/thechelseafridge",
      "name": "The Chelsea Fridge",
      "notes": "",
      "location": {
        "city": "New York",
        "geoLat": "40.7378597",
        "geoLng": "-73.9955823",
        "state": "NY",
        "street": "55 West 15th Street",
        "zip": "10011"
      }
    },
    {
      "instagram": "https://www.instagram.com/evergreenfreefridge",
      "name": "Evergreen Pantry Locker",
      "notes": "",
      "location": {
        "city": "New York",
        "geoLat": "40.6905271",
        "geoLng": "-73.9161505",
        "state": "NY",
        "street": "562 Evergreen Avenue",
        "zip": "11221"
      }
    },
    {
      "instagram": "",
      "name": "Greenville Community Fridge",
      "notes": "",
      "location": {
        "city": "Jersey City",
        "geoLat": "40.700012",
        "geoLng": "-74.09015",
        "state": "NJ",
        "street": "57 Rose Avenue",
        "zip": "07305"
      }
    },
    {
      "instagram": "https://www.instagram.com/fenixcommunityfridge",
      "name": "Fenix Community Fridge",
      "notes": "",
      "location": {
        "city": "New York",
        "geoLat": "40.7041427",
        "geoLng": "-73.91031738",
        "state": "NY",
        "street": "586 Seneca Avenue",
        "zip": "11385"
      }
    },
    {
      "instagram": "https://www.instagram.com/thefriendlyfridgebx",
      "name": "Friendly Fridge BX",
      "notes": "",
      "location": {
        "city": "New York",
        "geoLat": "40.8897501",
        "geoLng": "-73.8985352",
        "state": "NY",
        "street": "5977 Broadway",
        "zip": "10463"
      }
    },
    {
      "instagram": "https://www.instagram.com/loisaidafridge",
      "name": "Loisaida CommUnity Fridge",
      "notes": "",
      "location": {
        "city": "New York",
        "geoLat": "40.7260202",
        "geoLng": "-73.98012276",
        "state": "NY",
        "street": "602 East 9th Street",
        "zip": "10009"
      }
    },
    {
      "instagram": "https://www.instagram.com/CImBIK0l0Dt",
      "name": "Hungry Monk Food Pantry",
      "notes": "",
      "location": {
        "city": "Ridgewood",
        "geoLat": "40.7127281",
        "geoLng": "-74.0060152",
        "state": "NY",
        "street": "612 Woodward Ave",
        "zip": "11385"
      }
    },
    {
      "instagram": "https://www.instagram.com/2fish5loaves",
      "name": "2 Fish 5 Loaves Fridge",
      "notes": "",
      "location": {
        "city": "New York",
        "geoLat": "40.70170425",
        "geoLng": "-73.94450873",
        "state": "NY",
        "street": "63 Whipple Street",
        "zip": "11206"
      }
    },
    {
      "instagram": "https://www.instagram.com/bkfridges",
      "name": "BK Community Fridges",
      "notes": "",
      "location": {
        "city": "New York",
        "geoLat": "40.6559839",
        "geoLng": "-73.95287",
        "state": "NY",
        "street": "635 Rogers Avenue",
        "zip": "11226"
      }
    },
    {
      "instagram": "https://www.instagram.com/sixthstreetcc",
      "name": "6th St Fridge",
      "notes": "",
      "location": {
        "city": "New York",
        "geoLat": "40.7236719",
        "geoLng": "-73.98025568",
        "state": "NY",
        "street": "638 East 6th Street",
        "zip": "10009"
      }
    },
    {
      "instagram": "https://www.instagram.com/Classon_Community_Fridge",
      "name": "Classon Community Fridge",
      "notes": "",
      "location": {
        "city": "New York",
        "geoLat": "40.67855745",
        "geoLng": "-73.95853809",
        "state": "NY",
        "street": "641 Classon Avenue",
        "zip": "11238"
      }
    },
    {
      "instagram": "https://www.instagram.com/hkfridge",
      "name": "Hell's Kitchen Community Cupboard",
      "notes": "",
      "location": {
        "city": "New York",
        "geoLat": "40.7620639",
        "geoLng": "-73.9939254",
        "state": "NY",
        "street": "645 10th Avenue",
        "zip": "10036"
      }
    },
    {
      "instagram": "https://www.instagram.com/foodforusnj",
      "name": "Food For Us",
      "notes": "",
      "location": {
        "city": "West New York",
        "geoLat": "40.792199",
        "geoLng": "-74.010348",
        "state": "NJ",
        "street": "6510 Palisade Avenue",
        "zip": "07093"
      }
    },
    {
      "instagram": "https://www.instagram.com/nbkfridges",
      "name": "NBK - Music Hall Fridge",
      "notes": "at the Music Hall Williamsburg",
      "location": {
        "city": "New York",
        "geoLat": "40.719124",
        "geoLng": "-73.961791",
        "state": "NY",
        "street": "66 North 6th Street",
        "zip": "11249"
      }
    },
    {
      "instagram": "https://www.instagram.com/rockawaymutualaid",
      "name": "Rockaway Fridge 1",
      "notes": "",
      "location": {
        "city": "New York",
        "geoLat": "40.596882",
        "geoLng": "-73.8009287",
        "state": "NY",
        "street": "69-62 Almeda Avenue",
        "zip": "11692"
      }
    },
    {
      "instagram": "",
      "name": "Beauty Strike Fridge",
      "notes": "",
      "location": {
        "city": "New York",
        "geoLat": "40.696509",
        "geoLng": "-73.967347",
        "state": "NY",
        "street": "73 Washington Avenue",
        "zip": "11205"
      }
    },
    {
      "instagram": "https://www.instagram.com/cooperparkfridge",
      "name": "Cooper Park Fridge",
      "notes": "",
      "location": {
        "city": "New York",
        "geoLat": "40.7183849",
        "geoLng": "-73.9402009",
        "state": "NY",
        "street": "76 Kingsland Avenue",
        "zip": "11211"
      }
    },
    {
      "instagram": "https://www.instagram.com/elmhurstcommunityfridge2",
      "name": "Elmhurst Community Fridge 2",
      "notes": "",
      "location": {
        "city": "New York",
        "geoLat": "40.7434491",
        "geoLng": "-73.8878369",
        "state": "NY",
        "street": "77-02 Woodside Avenue",
        "zip": "11373"
      }
    },
    {
      "instagram": "https://www.instagram.com/nuestraxnevera",
      "name": "Vieques Solidarity Library",
      "notes": "between Tinton and Union",
      "location": {
        "city": "New York",
        "geoLat": "40.81914286",
        "geoLng": "-73.90380071",
        "state": "NY",
        "street": "791 East 158th Street",
        "zip": "10456"
      }
    },
    {
      "instagram": "https://www.instagram.com/jacksonheightscommunityfridge",
      "name": "JH Community Fridge",
      "notes": "",
      "location": {
        "city": "New York",
        "geoLat": "40.7552278",
        "geoLng": "-73.8870637",
        "state": "NY",
        "street": "80-02 Northern Boulevard",
        "zip": "11372"
      }
    },
    {
      "instagram": "https://www.instagram.com/ujamaafridge",
      "name": "Ujamaa Community Fridge",
      "notes": "",
      "location": {
        "city": "New York",
        "geoLat": "40.7127281",
        "geoLng": "-74.0060152",
        "state": "NY",
        "street": "830 Columbus Ave",
        "zip": "10025"
      }
    },
    {
      "instagram": "https://www.instagram.com/flatbushcommunityfridge",
      "name": "Flatbush Community Fridge",
      "notes": "",
      "location": {
        "city": "New York",
        "geoLat": "40.6502762",
        "geoLng": "-73.9525846",
        "state": "NY",
        "street": "830 Rogers Avenue",
        "zip": "11226"
      }
    },
    {
      "instagram": "",
      "name": "Hector Rafael Perez",
      "notes": "",
      "location": {
        "city": "New York",
        "geoLat": "40.6855108",
        "geoLng": "-73.91903355",
        "state": "NY",
        "street": "839 Halsey Street",
        "zip": "11233"
      }
    },
    {
      "instagram": "https://www.instagram.com/communityfridge120",
      "name": "Community Fridge 120MM",
      "notes": "",
      "location": {
        "city": "New York",
        "geoLat": "40.7127281",
        "geoLng": "-74.0060152",
        "state": "NY",
        "street": "86 West 120th",
        "zip": "10027"
      }
    },
    {
      "instagram": "https://www.instagram.com/overthrowcommunityfridge",
      "name": "Overthrow Community Fridge",
      "notes": "",
      "location": {
        "city": "New York",
        "geoLat": "40.7127281",
        "geoLng": "-74.0060152",
        "state": "NY",
        "street": "9 Bleecker Street",
        "zip": "nan"
      }
    },
    {
      "instagram": "https://www.instagram.com/iotabro",
      "name": "Clement Smiley Community Fridge",
      "notes": "",
      "location": {
        "city": "East Elmhurst",
        "geoLat": "40.7721879",
        "geoLng": "-73.9284077",
        "state": "NY",
        "street": "93-01 Astoria Blvd",
        "zip": "11369"
      }
    },
    {
      "instagram": "",
      "name": "PIN Community Fridge",
      "notes": "",
      "location": {
        "city": "New York",
        "geoLat": "40.6335233",
        "geoLng": "-73.967415",
        "state": "NY",
        "street": "944 Newkirk Avenue",
        "zip": "11230"
      }
    },
    {
      "instagram": "https://www.instagram.com/kingsjuicebar955",
      "name": "Ridgewood Tenants Union",
      "notes": "Kings Juice Bar",
      "location": {
        "city": "New York",
        "geoLat": "40.7000279",
        "geoLng": "-73.9027766",
        "state": "NY",
        "street": "955 Seneca Avenue",
        "zip": "11385"
      }
    },
    {
      "instagram": "https://www.instagram.com/chinatown.communityfridge",
      "name": "Chinatown Community Fridge & Pantry",
      "notes": "",
      "location": {
        "city": "New York",
        "geoLat": "40.7172118",
        "geoLng": "-73.9996427",
        "state": "NY",
        "street": "96 Baxter Street",
        "zip": "10013"
      }
    },
    {
      "instagram": "https://www.instagram.com/fultonstfridge",
      "name": "Fulton Street Community Fridge",
      "notes": "",
      "location": {
        "city": "New York",
        "geoLat": "40.68284",
        "geoLng": "-73.963217",
        "state": "NY",
        "street": "991 Fulton Street",
        "zip": "11238"
      }
    },
    {
      "instagram": "",
      "name": "Bake Shop Fridge",
      "notes": "",
      "location": {
        "city": "New York",
        "geoLat": "40.7032349",
        "geoLng": "-73.9328618",
        "state": "NY",
        "street": "995 Flushing Avenue",
        "zip": "11206"
      }
    },
    {
      "instagram": "https://www.instagram.com/forestavecomeunityfridge",
      "name": "Forest Avenue COMEunity Fridge",
      "notes": "",
      "location": {
        "city": "New York",
        "geoLat": "40.6266071",
        "geoLng": "-74.1611605",
        "state": "NY",
        "street": "Amity Place & Forest Ave",
        "zip": "10303"
      }
    },
    {
      "instagram": "https://www.instagram.com/thefriendlyfridgebx",
      "name": "The Friendly Fridge Bronx",
      "notes": "",
      "location": {
        "city": "New York",
        "geoLat": "40.714896",
        "geoLng": "-74.005839",
        "state": "NY",
        "street": "Broadway & Reade Street",
        "zip": "10007"
      }
    },
    {
      "instagram": "https://www.instagram.com/fortfridge",
      "name": "The Fridge at The Fort",
      "notes": "",
      "location": {
        "city": "New York",
        "geoLat": "40.850996",
        "geoLng": "-73.93750978",
        "state": "NY",
        "street": "Fort Washington Collegiate Church",
        "zip": "10033"
      }
    },
    {
      "instagram": "https://www.instagram.com/laureltoncommunityfridge",
      "name": "Laurelton Community Fridge",
      "notes": "",
      "location": {
        "city": "Queens",
        "geoLat": "40.6667703",
        "geoLng": "-73.7515212",
        "state": "NY",
        "street": "Merrick Blvd & 231st St",
        "zip": "11413"
      }
    },
    {
      "instagram": "https://www.instagram.com/iohnyc",
      "name": "Maspeth Fridge ",
      "notes": "Brothers Wash and Dry",
      "location": {
        "city": "Flushing",
        "geoLat": "40.7141774",
        "geoLng": "-73.9122854",
        "state": "NY",
        "street": "54-20 Nurge Ave",
        "zip": "11378"
      }
    },
    {
      "instagram": "https://www.instagram.com/theneighborhoodfridge",
      "name": "The Neighborhood Fridge",
      "notes": "",
      "location": {
        "city": "The Bronx",
        "geoLat": "40.7127281",
        "geoLng": "-74.0060152",
        "state": "NY",
        "street": "W 256th St & Mosholu Ave",
        "zip": "10471"
      }
    },
    {
      "instagram": "",
      "name": "HashtagLunchbag BK",
      "notes": "At the Wyckoff museum",
      "location": {
        "city": "New York",
        "geoLat": "40.6443616",
        "geoLng": "-73.9208761",
        "state": "NY",
        "street": "Wyckoff House Museum",
        "zip": "11203"
      }
    }
  ]
}
